stop_id,stop_code,stop_name,stop_desc,stop_lat,stop_lon,zone_id,stop_url,location_type,parent_station
ABL1BOUT,,"Boutzeur",,50.396622,2.696950,,,0,
ABL1MAIR,,"Ablain Mairie",,50.391977,2.711805,,,0,
ABL1NAMU,,"Namur",,50.394299,2.703814,,,0,
ABL1NDDL,,"Notre Dame De Lorette",,50.401560,2.715675,,,0,
ABL1VEGL,,"Vieille Eglise",,50.392574,2.721663,,,0,
ABL2MAIR,,"Ablain Mairie",,50.391993,2.712036,,,0,
ABL2NAMU,,"Namur",,50.394370,2.703796,,,0,
ABL2VEGL,,"Vieille Eglise",,50.392664,2.721621,,,0,
ACH1MAI2,,"Leclerc",,50.383748,2.886170,,,0,
ACH1SAD1,,"Acheville Allobus",,50.383334,2.885103,,,0,
ACH2MAI2,,"Leclerc",,50.383695,2.885973,,,0,
ACH2SAD1,,"Acheville Allobus",,50.383420,2.884376,,,0,
AIX1CIME,,"Aix-Noulette Cimetière",,50.430596,2.714424,,,0,
AIX1ECBR,,"Ecole Bruyères",,50.419050,2.716784,,,0,
AIX1EPIN,,"Epinette",,50.441212,2.695972,,,0,
AIX1LANT,,"Lantoine",,50.423244,2.712754,,,0,
AIX1MALT,,"Malterie",,50.425402,2.705326,,,0,
AIX1PNOU,,"Noulette",,50.415157,2.720691,,,0,
AIX1RBOU,,"Rue de Bouvigny",,50.422603,2.704426,,,0,
AIX1SAD1,,"Aix-Noulette Allobus",,50.427483,2.712027,,,0,
AIX1SGER,,"Aix-Noulette Centre",,50.426803,2.711616,,,0,
AIX1STFL,,"Florent",,50.425788,2.710489,,,0,
AIX2CIME,,"Aix-Noulette Cimetière",,50.430650,2.714341,,,0,
AIX2ECBR,,"Ecole Bruyères",,50.419314,2.716526,,,0,
AIX2EPIN,,"Epinette",,50.442228,2.695319,,,0,
AIX2LANT,,"Lantoine",,50.423512,2.712620,,,0,
AIX2MALT,,"Malterie",,50.425366,2.705214,,,0,
AIX2PNOU,,"Noulette",,50.415154,2.720740,,,0,
AIX2RBOU,,"Rue de Bouvigny",,50.422606,2.704327,,,0,
AIX2SAD1,,"Aix-Noulette Allobus",,50.427723,2.712039,,,0,
AIX2SGER,,"Aix-Noulette Centre",,50.426927,2.711599,,,0,
AIX2STFL,,"Florent",,50.425657,2.710386,,,0,
ALL1TROC,,"Trocadéro",,50.528269,2.498085,,,0,
ALL2TROC,,"Trocadéro",,50.528291,2.498261,,,0,
ANG1BRUY,,"Angres Cité Camus",,50.406275,2.756729,,,0,
ANG1COJV,,"Angres Collège Vilar",,50.410997,2.752658,,,0,
ANG1DUGA,,"Duguay-Trouin",,50.407922,2.766485,,,0,
ANG1LCAV,,"Cavée",,50.412258,2.754703,,,0,
ANG1LECL,,"Leclerc",,50.414374,2.757205,,,0,
ANG1MONU,,"Angres Monument",,50.411082,2.758941,,,0,
ANG1MOUL,,"Angres Clémenceau",,50.407558,2.762396,,,0,
ANG1PMAI,,"Angres Mairie",,50.408296,2.757039,,,0,
ANG1RSOU,,"Maisonneraie",,50.401152,2.754902,,,0,
ANG1SALE,,"Salengro",,50.413966,2.762310,,,0,
ANG1TRAN,,"Transvaal",,50.405052,2.768679,,,0,
ANG2BRUY,,"Angres Cité Camus",,50.404934,2.756197,,,0,
ANG2LCAV,,"Cavée",,50.412105,2.754691,,,0,
ANG2LECL,,"Leclerc",,50.414495,2.757189,,,0,
ANG2MONU,,"Angres Monument",,50.411093,2.758777,,,0,
ANG2MOUL,,"Angres Clémenceau",,50.407168,2.762844,,,0,
ANG2PMA1,,"Angres Mairie",,50.407956,2.756783,,,0,
ANG2RSOU,,"Maisonneraie",,50.400884,2.754450,,,0,
ANG2SALE,,"Salengro",,50.414003,2.762170,,,0,
ANG2TRAN,,"Transvaal",,50.404978,2.768618,,,0,
ANN1CILE,,"Leclerc",,50.458636,2.887973,,,0,
ANN1CONC,,"Concurrence",,50.452503,2.874879,,,0,
ANN1IDEA,,"Rue Mattei",,50.458507,2.886721,,,0,
ANN1MARA,,"Marais d'Annay",,50.466433,2.877825,,,0,
ANN1MDOR,,"Mont Doré",,50.457730,2.889056,,,0,
ANN1PEGL,,"Annay-sous-Lens Mairie",,50.463453,2.880056,,,0,
ANN2CILE,,"Leclerc",,50.458675,2.888241,,,0,
ANN2CONC,,"Concurrence",,50.452332,2.874891,,,0,
ANN2IDEA,,"Rue Mattei",,50.458605,2.886877,,,0,
ANN2MARA,,"Marais d'Annay",,50.466819,2.877759,,,0,
ANN2MDOR,,"Mont Doré",,50.457787,2.889145,,,0,
ANN2PEGL,,"Annay-sous-Lens Mairie",,50.463515,2.880226,,,0,
ANQ1CI12,,"Cité 12",,50.490155,2.713902,,,0,
ANQ1EGLI,,"Rue de l'Eglise",,50.503135,2.727984,,,0,
ANQ1FECO,,"Ferry",,50.505794,2.724724,,,0,
ANQ1HEBU,,"Hébuterne",,50.504528,2.718420,,,0,
ANQ1MAIR,,"Annequin Mairie",,50.509458,2.726751,,,0,
ANQ1RDJO,,"Rue des Jonquilles",,50.508287,2.724026,,,0,
ANQ1RSAL,,"Annequin Cimetière",,50.502963,2.725629,,,0,
ANQ2CI12,,"Cité 12",,50.489631,2.715220,,,0,
ANQ2EGLI,,"Rue de l'Eglise",,50.503239,2.728072,,,0,
ANQ2FECO,,"Ferry",,50.505492,2.724662,,,0,
ANQ2HEBU,,"Hébuterne",,50.504673,2.718195,,,0,
ANQ2MAIR,,"Annequin Mairie",,50.509491,2.727666,,,0,
ANQ2RDJO,,"Rue des Jonquilles",,50.508254,2.724089,,,0,
ANQ2RSAL,,"Annequin Cimetière",,50.503115,2.725658,,,0,
ANZ14VEN,,"4 Vents",,50.543333,2.622130,,,0,
ANZ1ANEG,,"Egalité",,50.533025,2.616431,,,0,
ANZ1AVEL,,"Avelette",,50.560958,2.640677,,,0,
ANZ1BANN,,"Bas d'Annezin",,50.546397,2.623767,,,0,
ANZ1BCHA,,"Bas Champs",,50.537799,2.617042,,,0,
ANZ1BELZ,,"Belzace",,50.552495,2.632250,,,0,
ANZ1CALV,,"Morinie",,50.540436,2.614005,,,0,
ANZ1CMAT,,"Champ Mathieu",,50.528262,2.603623,,,0,
ANZ1COUS,,"Coussette",,50.531941,2.621291,,,0,
ANZ1CVER,,"Chemin Vert",,50.548713,2.627061,,,0,
ANZ1FONT,,"Fontenelles",,50.529037,2.595575,,,0,
ANZ1LHER,,"La Herse",,50.539484,2.620080,,,0,
ANZ1LIBE,,"Annezin Liberté",,50.541707,2.624445,,,0,
ANZ1MAIR,,"Annezin Mairie",,50.531347,2.618191,,,0,
ANZ1MUSS,,"Musset",,50.526666,2.612841,,,0,
ANZ1NMON,,"Nouveau Monde",,50.528158,2.617076,,,0,
ANZ1PANI,,"Passage à Niveau",,50.525564,2.608811,,,0,
ANZ1RBLU,,"Rue Blum",,50.537837,2.622293,,,0,
ANZ1ROS1,,"Rue des Rosiers",,50.538947,2.615407,,,0,
ANZ1STAD,,"Annezin Stade",,50.535793,2.618739,,,0,
ANZ24VEN,,"4 Vents",,50.542958,2.622566,,,0,
ANZ2ANPO,,"Annezin Poste",,50.533468,2.620455,,,0,
ANZ2AVEL,,"Avelette",,50.560774,2.640377,,,0,
ANZ2BANN,,"Bas d'Annezin",,50.546189,2.623478,,,0,
ANZ2BCHA,,"Bas Champs",,50.537791,2.617158,,,0,
ANZ2BELZ,,"Belzace",,50.552433,2.632278,,,0,
ANZ2CALV,,"Morinie",,50.540452,2.614465,,,0,
ANZ2CMAT,,"Champ Mathieu",,50.528352,2.603657,,,0,
ANZ2COU2,,"Coussette",,50.532044,2.623361,,,0,
ANZ2CVER,,"Chemin Vert",,50.548732,2.627187,,,0,
ANZ2FONT,,"Fontenelles",,50.529047,2.595322,,,0,
ANZ2LHER,,"La Herse",,50.539602,2.620120,,,0,
ANZ2LIBE,,"Annezin Liberté",,50.542235,2.623729,,,0,
ANZ2MAI3,,"Annezin Mairie",,50.531700,2.617283,,,0,
ANZ2MUSS,,"Musset",,50.526531,2.612735,,,0,
ANZ2NMON,,"Nouveau Monde",,50.528494,2.617510,,,0,
ANZ2PANI,,"Passage à Niveau",,50.525626,2.608785,,,0,
ANZ2RBLU,,"Rue Blum",,50.536732,2.619679,,,0,
ANZ2ROS1,,"Rue des Rosiers",,50.539152,2.615275,,,0,
ANZ2STAD,,"Annezin Stade",,50.536082,2.619048,,,0,
AUC1AFRA,,"Anatole France",,50.517026,2.452692,,,0,
AUC1BASL,,"Basly",,50.506359,2.467187,,,0,
AUC1BRIQ,,"Rue du Val d'Enfer",,50.516642,2.460248,,,0,
AUC1CCOM,,"Auchel Centre Commercial",,50.514762,2.473124,,,0,
AUC1CENT,,"Jaurès",,50.507491,2.475226,,,0,
AUC1CHA1,,"Rue Georges Bernard",,50.500660,2.480436,,,0,
AUC1CHAT,,"Chateaubriand",,50.501298,2.479284,,,0,
AUC1CIME,,"Auchel Cimetière",,50.512131,2.466920,,,0,
AUC1CLIN,,"Dr Laënnec",,50.501400,2.474693,,,0,
AUC1COSE,,"Auchel Collège Sévigné",,50.507759,2.465390,,,0,
AUC1CVIL,,"Front Populaire",,50.503481,2.472630,,,0,
AUC1EGAL,,"Egalité",,50.513480,2.470668,,,0,
AUC1EVRA,,"Evrard",,50.502993,2.478166,,,0,
AUC1FREV,,"Fréville",,50.513288,2.483362,,,0,
AUC1GROU,,"Briquet",,50.507987,2.471928,,,0,
AUC1LAME,,"Lamendin",,50.518592,2.455025,,,0,
AUC1LMAN,,"La Manaie",,50.516361,2.481048,,,0,
AUC1LYMI,,"Auchel Lycée Mixte",,50.507134,2.476915,,,0,
AUC1MDLO,,"Mont de Lozinghem",,50.514870,2.482626,,,0,
AUC1PDMA,,"Séraphin Cordier",,50.502381,2.470989,,,0,
AUC1PISC,,"Auchel Piscine",,50.507271,2.467342,,,0,
AUC1PJGU,,"Auchel Mairie",,50.504047,2.468319,,,0,
AUC1POGO,,"Pogon",,50.500000,2.484533,,,0,
AUC1PROV,,"Fraternité",,50.507328,2.458072,,,0,
AUC1RDPO,,"Portel",,50.510719,2.462442,,,0,
AUC1RIMB,,"Rimbert",,50.518466,2.457719,,,0,
AUC1SORR,,"Sorriaux",,50.503898,2.464859,,,0,
AUC1VAND,,"Vandervelde",,50.506413,2.461390,,,0,
AUC1ZI__,,"Z.I. Portes de l'Artois",,50.512966,2.463722,,,0,
AUC2AFRA,,"Anatole France",,50.517112,2.452633,,,0,
AUC2BASL,,"Basly",,50.506201,2.467186,,,0,
AUC2BRIQ,,"Rue du Val d'Enfer",,50.516651,2.460374,,,0,
AUC2CCOM,,"Auchel Centre Commercial",,50.514863,2.473450,,,0,
AUC2CENT,,"Jaurès",,50.507520,2.475491,,,0,
AUC2CHA1,,"Rue Georges Bernard",,50.500749,2.480788,,,0,
AUC2CHAT,,"Chateaubriand",,50.501336,2.479398,,,0,
AUC2CIME,,"Auchel Cimetière",,50.512382,2.467216,,,0,
AUC2CLIN,,"Dr Laënnec",,50.501373,2.474793,,,0,
AUC2COSE,,"Auchel Collège Sévigné",,50.507852,2.465195,,,0,
AUC2CVIL,,"Front Populaire",,50.503630,2.472817,,,0,
AUC2EGAL,,"Egalité",,50.513349,2.469737,,,0,
AUC2EVRA,,"Evrard",,50.502973,2.478289,,,0,
AUC2FREV,,"Fréville",,50.513288,2.483497,,,0,
AUC2GROU,,"Briquet",,50.507972,2.471574,,,0,
AUC2LAME,,"Lamendin",,50.518679,2.454934,,,0,
AUC2LMAN,,"La Manaie",,50.516296,2.481268,,,0,
AUC2LYMI,,"Auchel Lycée Mixte",,50.507216,2.477009,,,0,
AUC2MDLO,,"Mont de Lozinghem",,50.514862,2.482524,,,0,
AUC2PDMA,,"Séraphin Cordier",,50.502381,2.470943,,,0,
AUC2PISC,,"Auchel Piscine",,50.507284,2.467322,,,0,
AUC2PJGU,,"Auchel Mairie",,50.504029,2.467996,,,0,
AUC2POGO,,"Pogon",,50.500054,2.484527,,,0,
AUC2PROV,,"Fraternité",,50.507206,2.457959,,,0,
AUC2RDPO,,"Portel",,50.510699,2.462526,,,0,
AUC2RIMB,,"Rimbert",,50.518519,2.457832,,,0,
AUC2SORR,,"Sorriaux",,50.503988,2.464845,,,0,
AUC2VAND,,"Vandervelde",,50.506207,2.461572,,,0,
AUC2ZI__,,"Z.I. Portes de l'Artois",,50.512985,2.463811,,,0,
AUM1ACOP,,"Humblot",,50.515485,2.780869,,,0,
AUM1CASE,,"Auchy Caisse de Secours",,50.505646,2.777072,,,0,
AUM1CIME,,"Auchy Cimetière",,50.508220,2.787089,,,0,
AUM1CIZI,,"Briquet",,50.508833,2.789058,,,0,
AUM1COLL,,"Auchy Collège Joliot-Curie",,50.517181,2.788384,,,0,
AUM1DERE,,"Derez",,50.508868,2.782481,,,0,
AUM1DETE,,"Rue du Calvaire",,50.517328,2.776906,,,0,
AUM1DOUA,,"Douai",,50.502467,2.780546,,,0,
AUM1EGLA,,"Eglantines",,50.505297,2.782439,,,0,
AUM1EGLI,,"Auchy Mairie",,50.511669,2.785179,,,0,
AUM1FHDB,,"Jules Verne",,50.512812,2.790572,,,0,
AUM1FLES,,"Auchy Mairie",,50.510724,2.783414,,,0,
AUM1GASE,,"Sainte Elisabeth",,50.520542,2.792388,,,0,
AUM1JDBO,,"Jeu de Boules",,50.501743,2.777199,,,0,
AUM1JPRI,,"Jeannette Prin",,50.517252,2.789833,,,0,
AUM1LLIL,,"Place Jean Jaurès",,50.511020,2.787462,,,0,
AUM1MARA,,"Centre commercial",,50.520114,2.793851,,,0,
AUM1PFLA,,"Porte des Flandres",,50.518258,2.798005,,,0,
AUM1RD94,,"Planquette",,50.518502,2.784476,,,0,
AUM1TITO,,"Place Germinal",,50.504032,2.786415,,,0,
AUM2ACOP,,"Humblot",,50.515529,2.780993,,,0,
AUM2CASE,,"Auchy Caisse de Secours",,50.505735,2.777339,,,0,
AUM2CIME,,"Auchy Cimetière",,50.508087,2.786969,,,0,
AUM2CIZI,,"Briquet",,50.508914,2.788988,,,0,
AUM2COLL,,"Auchy Collège Joliot-Curie",,50.517148,2.788397,,,0,
AUM2DERE,,"Derez",,50.508690,2.782198,,,0,
AUM2DETE,,"Rue du Calvaire",,50.517255,2.777173,,,0,
AUM2DOUA,,"Douai",,50.502673,2.780594,,,0,
AUM2EGLA,,"Eglantines",,50.505068,2.783200,,,0,
AUM2FHDB,,"Jules Verne",,50.512817,2.790538,,,0,
AUM2GASE,,"Sainte Elisabeth",,50.519744,2.790805,,,0,
AUM2JDBO,,"Jeu de Boules",,50.502004,2.777025,,,0,
AUM2JPRI,,"Jeannette Prin",,50.517087,2.789840,,,0,
AUM2LLIL,,"Place Jean Jaurès",,50.511040,2.787406,,,0,
AUM2MARA,,"Centre Commercial",,50.520174,2.794079,,,0,
AUM2PFLA,,"Porte des Flandres",,50.518337,2.797679,,,0,
AUM2RD94,,"Planquette",,50.518369,2.784296,,,0,
AUM2TITO,,"Place Germinal",,50.504375,2.786359,,,0,
AVI1BAS2,,"Rue Helle",,50.406949,2.835930,,,0,
AVI1BAST,,"Bastille",,50.407246,2.837537,,,0,
AVI1BROS,,"Brossolette",,50.410493,2.806960,,,0,
AVI1CHVE,,"Taverne",,50.410397,2.855416,,,0,
AVI1CICH,,"Cheminots",,50.413862,2.850832,,,0,
AVI1CIME,,"Avion Cimetière",,50.413979,2.839936,,,0,
AVI1COJR,,"Avion Collège Rousseau",,50.405142,2.826514,,,0,
AVI1COSM,,"Rue Lamendin",,50.406556,2.841368,,,0,
AVI1CSEC,,"Thumerelle",,50.409217,2.821214,,,0,
AVI1DELE,,"Delestraint",,50.414052,2.812372,,,0,
AVI1EGL2,,"Avion Eglise",,50.410364,2.830181,,,0,
AVI1FCA2,,"Cadras",,50.408654,2.825125,,,0,
AVI1FOS7,,"Fosse 7",,50.404616,2.815291,,,0,
AVI1GAR2,,"Avion Gare SNCF",,50.407260,2.833535,,,0,
AVI1GEND,,"Avion Gendarmerie",,50.406552,2.828242,,,0,
AVI1GHE2,,"Ghesquière",,50.407141,2.813559,,,0,
AVI1HDV2,,"Avion Hôtel de Ville",,50.413559,2.833666,,,0,
AVI1LCO2,,"Colonel Fabien",,50.409700,2.813108,,,0,
AVI1LCOU,,"Rue Foch",,50.410587,2.815077,,,0,
AVI1MART,,"Avion Martel",,50.404285,2.812216,,,0,
AVI1PBOU,,"Bourel",,50.416962,2.845457,,,0,
AVI1PELU,,"Eluard",,50.397471,2.834939,,,0,
AVI1PIC2,,"Avion Lycée Picasso",,50.400148,2.835467,,,0,
AVI1PICA,,"Avion Lycée Picasso",,50.402760,2.835574,,,0,
AVI1PINC,,"Pinchonvalles",,50.400628,2.810592,,,0,
AVI1PLEB,,"Avion République",,50.399132,2.831898,,,0,
AVI1REPU,,"Lebas",,50.399603,2.835386,,,0,
AVI1RJJR,,"Avion Rousseau",,50.402123,2.829014,,,0,
AVI1SALI,,"Salingue",,50.415656,2.846476,,,0,
AVI1SQFO,,"Square Foulon",,50.410923,2.835134,,,0,
AVI1VOLT,,"Voltaire",,50.421792,2.842284,,,0,
AVI2BAS2,,"Rue Helle",,50.406986,2.835800,,,0,
AVI2BROS,,"Brossolette",,50.410488,2.807325,,,0,
AVI2CHVE,,"Taverne",,50.410308,2.855317,,,0,
AVI2CICH,,"Cheminots",,50.413700,2.850906,,,0,
AVI2CIME,,"Avion Cimetière",,50.414040,2.840330,,,0,
AVI2COSM,,"Rue Lamendin",,50.406496,2.841058,,,0,
AVI2CSEC,,"Thumerelle",,50.409123,2.821390,,,0,
AVI2DELE,,"Delestraint",,50.413911,2.811879,,,0,
AVI2EGL2,,"Avion Eglise",,50.410484,2.830416,,,0,
AVI2FCA2,,"Cadras",,50.408603,2.825064,,,0,
AVI2FOS7,,"Fosse 7",,50.404721,2.815442,,,0,
AVI2GEND,,"Avion Gendarmerie",,50.405452,2.828320,,,0,
AVI2GHE2,,"Ghesquière",,50.406907,2.813227,,,0,
AVI2HDV2,,"Avion Hôtel de Ville",,50.413503,2.833402,,,0,
AVI2LCO2,,"Colonel Fabien",,50.409779,2.813348,,,0,
AVI2LCOU,,"Rue Foch",,50.410504,2.814912,,,0,
AVI2MART,,"Avion Martel",,50.404466,2.812208,,,0,
AVI2PBOU,,"Bourel",,50.416819,2.845217,,,0,
AVI2PELU,,"Eluard",,50.397559,2.834603,,,0,
AVI2PICA,,"Avion Lycée Picasso",,50.402716,2.835537,,,0,
AVI2PINC,,"Pinchonvalles",,50.400708,2.810477,,,0,
AVI2PLEB,,"Avion République",,50.399245,2.832106,,,0,
AVI2REPU,,"Lebas",,50.399555,2.835255,,,0,
AVI2RJJR,,"Avion Rousseau",,50.402549,2.829034,,,0,
AVI2SALI,,"Salingue",,50.415594,2.846342,,,0,
AVI2SQFO,,"Square Foulon",,50.410863,2.835097,,,0,
AVI2VOLT,,"Voltaire",,50.421735,2.842181,,,0,
BAJ1ABRE,,"Abreuvoir",,50.420202,2.477341,,,0,
BAJ1GARE,,"Rue de Diéval",,50.423477,2.474592,,,0,
BAJ1MAIR,,"Bajus Mairie",,50.421503,2.482232,,,0,
BAJ2ABRE,,"Abreuvoir",,50.420255,2.477917,,,0,
BAJ2GARE,,"Rue de Diéval",,50.423431,2.474549,,,0,
BAJ2MAIR,,"Bajus Mairie",,50.421533,2.482457,,,0,
BAR1ACTI,,"Actigreen",,50.451266,2.614160,,,0,
BAR1ARAG,,"Barlin Collège Moulin - Quai A",,50.457526,2.622866,,,0,
BAR1BAIL,,"Bailleux",,50.453414,2.603393,,,0,
BAR1BMWA,,"Bd Marcel Wacheux",,50.451530,2.607128,,,0,
BAR1CHAR,,"Charmilles",,50.453934,2.622911,,,0,
BAR1CIME,,"Barlin Cimetière",,50.464759,2.614712,,,0,
BAR1COLL,,"Barlin Collège Moulin - Quai C",,50.456893,2.623852,,,0,
BAR1FETE,,"Barlin Mairie",,50.457989,2.617173,,,0,
BAR1FOS5,,"Fosse 5",,50.455980,2.627419,,,0,
BAR1FOS7,,"Fosse 7",,50.452563,2.595069,,,0,
BAR1FREN,,"Fresnicourt",,50.454009,2.616298,,,0,
BAR1JDAR,,"Jeanne d'Arc",,50.453659,2.619176,,,0,
BAR1JUST,,"Rue de la Justice",,50.460324,2.611905,,,0,
BAR1MARI,,"Marina",,50.453696,2.598504,,,0,
BAR1MILL,,"Millevoye",,50.455863,2.621166,,,0,
BAR1PON9,,"Pont 9",,50.445692,2.610041,,,0,
BAR1REPT,,"Reptins",,50.461311,2.613602,,,0,
BAR1RFOC,,"Rue Foch",,50.447673,2.611807,,,0,
BAR1RVHO,,"Vieil Houdain",,50.443681,2.607655,,,0,
BAR1SALE,,"Grand-Place",,50.459162,2.614830,,,0,
BAR2ACTI,,"Actigreen",,50.451418,2.614160,,,0,
BAR2ARAG,,"Barlin Collège Moulin - Quai B",,50.457553,2.623020,,,0,
BAR2BAIL,,"Bailleux",,50.453215,2.602765,,,0,
BAR2BMWA,,"Bd Marcel Wacheux",,50.451581,2.607384,,,0,
BAR2CHAR,,"Charmilles",,50.453777,2.622697,,,0,
BAR2CIME,,"Barlin Cimetière",,50.464911,2.614713,,,0,
BAR2COLL,,"Barlin Collège Moulin - Quai D",,50.457012,2.624029,,,0,
BAR2FETE,,"Barlin Mairie",,50.458034,2.617105,,,0,
BAR2FOS5,,"Fosse 5",,50.456226,2.626820,,,0,
BAR2FOS7,,"Fosse 7",,50.452509,2.595139,,,0,
BAR2FREN,,"Fresnicourt",,50.454231,2.616396,,,0,
BAR2JDAR,,"Jeanne d'Arc",,50.453658,2.619242,,,0,
BAR2JUST,,"Rue de la Justice",,50.460180,2.611862,,,0,
BAR2MARI,,"Marina",,50.453606,2.598531,,,0,
BAR2MILL,,"Millevoye",,50.455728,2.620733,,,0,
BAR2PON9,,"Pont 9",,50.445677,2.609963,,,0,
BAR2REPT,,"Reptins",,50.461291,2.613838,,,0,
BAR2RFOC,,"Rue Foch",,50.447674,2.611653,,,0,
BAR2RVHO,,"Vieil Houdain",,50.443743,2.607753,,,0,
BAR2SALE,,"Grand-Place",,50.458794,2.614377,,,0,
BAU1MAIR,,"Bauvin Mairie",,50.515021,2.896779,,,0,
BAU1MARA,,"Bauvin Marais",,50.518264,2.891703,,,0,
BAU2MAIR,,"Bauvin Mairie",,50.515243,2.896226,,,0,
BAU2MARA,,"Bauvin Marais",,50.518159,2.891550,,,0,
BEG1BOLO,,"Bois Louis",,50.432157,2.498611,,,0,
BEG1CENT,,"Rue de la Place",,50.442819,2.516843,,,0,
BEG1LLAC,,"Le Lac",,50.438214,2.509030,,,0,
BEG1PPER,,"Beugin Mairie",,50.441454,2.516597,,,0,
BEG2BOLO,,"Bois Louis",,50.432087,2.498476,,,0,
BEG2CENT,,"Rue de la Place",,50.442801,2.516787,,,0,
BEG2LLAC,,"Le Lac",,50.438197,2.508412,,,0,
BEN1PLAC,,"Bénifontaine Place",,50.488312,2.828345,,,0,
BEN1VHUG,,"Bénifontaine Mairie",,50.486893,2.832651,,,0,
BEN2PLAC,,"Bénifontaine Place",,50.488398,2.828366,,,0,
BEN2VHUG,,"Bénifontaine Mairie",,50.487224,2.832289,,,0,
BET1BEMA,,"Béthune Marché",,50.534945,2.639509,,,0,
BET1BMAR,,"Beau Marais",,50.531885,2.651891,,,0,
BET1CESP,,"Centre Sportif Lagrange",,50.532080,2.634847,,,0,
BET1CIMN,,"Béthune Cimetière Nord",,50.536394,2.642741,,,0,
BET1CIVE,,"Cité Verquin",,50.518501,2.644208,,,0,
BET1CLEA,,"Clémenceau - Quai A",,50.529762,2.640450,,,0,
BET1CLEB,,"Clémenceau - Quai B",,50.529264,2.640630,,,0,
BET1CLEC,,"Clémenceau - Quai C",,50.528923,2.640563,,,0,
BET1CLED,,"Clémenceau - Quai D",,50.529198,2.641544,,,0,
BET1CLEE,,"Clémenceau - Quai E",,50.529410,2.641958,,,0,
BET1CLI2,,"Béthune Collège Saint-Vaast",,50.534012,2.642483,,,0,
BET1COPE,,"Copernic",,50.517363,2.647282,,,0,
BET1CORB,,"Rue des Bruyères",,50.522945,2.657309,,,0,
BET1COVE,,"Béthune Collège Verlaine",,50.516718,2.632151,,,0,
BET1FIRE,,"Washington",,50.540351,2.650432,,,0,
BET1FOCH,,"Place Foch",,50.530523,2.633092,,,0,
BET1GARC,,"Béthune  Gare Avenue de Lens",,50.521879,2.641363,,,0,
BET1GARE,,"Béthune Gare - Poincaré",,50.522285,2.640482,,,0,
BET1GAUT,,"Gauthier",,50.527377,2.645162,,,0,
BET1GEND,,"Béthune Gendarmerie",,50.536206,2.636998,,,0,
BET1GMOU,,"Gros Moulin",,50.518511,2.622774,,,0,
BET1HAS1,,"Hastings",,50.530958,2.653137,,,0,
BET1HAST,,"Glaïeuls",,50.528376,2.655114,,,0,
BET1HDPO,,"Hôtel des Postes",,50.531406,2.641856,,,0,
BET1IMPO,,"Béthune Centre des Impôts",,50.532002,2.629793,,,0,
BET1JOFF,,"Joffre",,50.532756,2.643969,,,0,
BET1JUIN,,"Juin",,50.523541,2.636680,,,0,
BET1LAMA,,"Lamartine",,50.534384,2.639056,,,0,
BET1LEGI,,"Legillon",,50.524722,2.640415,,,0,
BET1LIB2,,"Béthune Liberté",,50.512290,2.648999,,,0,
BET1LINC,,"Abraham Lincoln",,50.539976,2.653594,,,0,
BET1LOND,,"Londres",,50.516201,2.627025,,,0,
BET1LROT,,"Béthune La Rotonde",,50.521547,2.630182,,,0,
BET1LYCE,,"Béthune Lycées",,50.520970,2.653988,,,0,
BET1LYQA,,"Lycée Malraux - Quai A",,50.520811,2.653752,,,0,
BET1LYQB,,"Lycée Malraux - Quai B",,50.520795,2.653795,,,0,
BET1LYQC,,"Lycée Malraux - Quai C",,50.520779,2.653623,,,0,
BET1LYQD,,"Lycée Malraux - Quai D",,50.520670,2.653576,,,0,
BET1LYQE,,"Lycée Malraux - Quai E",,50.520674,2.653368,,,0,
BET1MAIN,,"Résidence Chambord",,50.533406,2.635558,,,0,
BET1MANE,,"Popieluszko",,50.515423,2.648129,,,0,
BET1MANN,,"Mannessier",,50.522017,2.655431,,,0,
BET1MARN,,"Paul Marcel",,50.512855,2.642650,,,0,
BET1MICH,,"Michelet",,50.523116,2.646375,,,0,
BET1MLIE,,"Mont-Liébaut",,50.518252,2.627646,,,0,
BET1MSOR,,"Mont-Sorel",,50.538508,2.642626,,,0,
BET1PASS,,"Passerelle",,50.520100,2.637294,,,0,
BET1PCAT,,"Place Catorive",,50.538791,2.634098,,,0,
BET1PDDA,,"Pont des Dames",,50.537463,2.634555,,,0,
BET1PDPA,,"Place de Paris",,50.515999,2.638442,,,0,
BET1PDPE,,"Parc du Perroy",,50.525594,2.649402,,,0,
BET1PDPI,,"Pont de Pierre",,50.538359,2.646230,,,0,
BET1PDSE,,"Près des Soeurs",,50.528212,2.650629,,,0,
BET1PENI,,"Péniche",,50.540566,2.649393,,,0,
BET1PFLU,,"Port Fluvial",,50.536445,2.664775,,,0,
BET1PHIL,,"Kennedy",,50.538196,2.650213,,,0,
BET1POST,,"Luxembourg",,50.518784,2.629985,,,0,
BET1PPAS,,"Place Pasteur",,50.537786,2.638424,,,0,
BET1PRIE,,"Prieuré",,50.514156,2.626819,,,0,
BET1RDAN,,"Clinique Anne d'Artois",,50.538739,2.630287,,,0,
BET1RDRO,,"Rue des Roses",,50.510460,2.648942,,,0,
BET1RECE,,"Résidence des Cèdres",,50.528902,2.630631,,,0,
BET1ROU2,,"Rousseau",,50.524895,2.633710,,,0,
BET1SACO,,"Sacré Coeur",,50.522489,2.626751,,,0,
BET1SAD1,,"Béthune Allobus",,50.529733,2.640213,,,0,
BET1SENE,,"Sénéchal",,50.529419,2.647850,,,0,
BET1STCH,,"Saint-Christophe",,50.514508,2.641119,,,0,
BET1STH1,,"Sainte-Honorine",,50.542898,2.638918,,,0,
BET1STHO,,"Quatre Faces",,50.540085,2.638230,,,0,
BET1SULL,,"Sully",,50.531219,2.627142,,,0,
BET1TOLA,,"Ferme du Roy",,50.536197,2.648145,,,0,
BET1UNI2,,"Université d'Artois",,50.516012,2.659727,,,0,
BET1VARS,,"Varsovie",,50.520492,2.628476,,,0,
BET1VOLT,,"Voltaire",,50.527187,2.634927,,,0,
BET2BASL,,"Rue Basly",,50.542188,2.632302,,,0,
BET2BLAR,,"Béthune Lycée Blaringhem",,50.530432,2.644858,,,0,
BET2CESP,,"Centre Sportif Lagrange",,50.532161,2.634706,,,0,
BET2CIMN,,"Béthune Cimetière Nord",,50.536439,2.642544,,,0,
BET2CIVE,,"Cité Verquin",,50.518053,2.643980,,,0,
BET2CLI2,,"Béthune Collège Saint-Vaast",,50.533873,2.642529,,,0,
BET2COPE,,"Copernic",,50.517174,2.647450,,,0,
BET2CORB,,"Rue des Bruyères",,50.523043,2.657394,,,0,
BET2COVE,,"Béthune Collège Verlaine",,50.516782,2.631743,,,0,
BET2DEGA,,"Place de Gaulle",,50.535742,2.641414,,,0,
BET2FIRE,,"Washington",,50.540063,2.650765,,,0,
BET2FOCH,,"Place Foch",,50.530667,2.633121,,,0,
BET2GARC,,"Béthune Gare Avenue de Lens",,50.521908,2.641682,,,0,
BET2GARE,,"Béthune Gare - Poincaré",,50.522255,2.640322,,,0,
BET2GAUT,,"Gauthier",,50.527443,2.645220,,,0,
BET2GEND,,"Béthune Gendarmerie",,50.536138,2.637221,,,0,
BET2GMOU,,"Gros Moulin",,50.519028,2.621360,,,0,
BET2HDPO,,"Hôtel des Postes",,50.532082,2.641293,,,0,
BET2JOFF,,"Joffre",,50.532344,2.641352,,,0,
BET2JUIN,,"Juin",,50.523589,2.636726,,,0,
BET2LAMA,,"Lamartine",,50.534285,2.639223,,,0,
BET2LEGI,,"Legillon",,50.524730,2.640332,,,0,
BET2LIBE,,"Béthune Liberté",,50.511790,2.649436,,,0,
BET2LINC,,"Abraham Lincoln",,50.540082,2.653993,,,0,
BET2LOND,,"Londres",,50.516273,2.627070,,,0,
BET2LROT,,"Béthune La Rotonde",,50.521422,2.630123,,,0,
BET2LYCE,,"Béthune Lycées",,50.520943,2.654080,,,0,
BET2MAIN,,"Résidence Chambord",,50.533469,2.635460,,,0,
BET2MAN2,,"Mannessier",,50.521933,2.655474,,,0,
BET2MANE,,"Popieluszko",,50.514633,2.648222,,,0,
BET2MARN,,"Paul Marcel",,50.512909,2.642512,,,0,
BET2MFRA,,"Mendès France",,50.519168,2.638723,,,0,
BET2MICH,,"Michelet",,50.522829,2.646556,,,0,
BET2MLIE,,"Mont-Liébaut",,50.518213,2.627781,,,0,
BET2PASS,,"Passerelle",,50.520055,2.637591,,,0,
BET2PDDA,,"Pont des Dames",,50.537431,2.634397,,,0,
BET2PDPA,,"Place de Paris",,50.516001,2.638526,,,0,
BET2PDPE,,"Parc du Perroy",,50.525304,2.650630,,,0,
BET2PDPI,,"Pont de Pierre",,50.538073,2.645862,,,0,
BET2PFLU,,"Port Fluvial",,50.536833,2.663940,,,0,
BET2PHIL,,"Kennedy",,50.538153,2.650510,,,0,
BET2POLY,,"Béthune Clinique",,50.539756,2.628740,,,0,
BET2POST,,"Luxembourg",,50.518724,2.630070,,,0,
BET2PRIE,,"Prieuré",,50.514237,2.626692,,,0,
BET2QDBR,,"Quai de Bruay",,50.541838,2.635806,,,0,
BET2RDAN,,"Clinique Anne d'Artois",,50.538602,2.630472,,,0,
BET2RDRO,,"Rue des Roses",,50.510379,2.649054,,,0,
BET2ROU2,,"Rousseau",,50.524910,2.633841,,,0,
BET2SACO,,"Sacré Coeur",,50.522651,2.627262,,,0,
BET2SAD1,,"Béthune Allobus",,50.529516,2.642211,,,0,
BET2STCH,,"Saint-Christophe",,50.514397,2.641079,,,0,
BET2STHO,,"Quatre Faces",,50.539993,2.638314,,,0,
BET2SULL,,"Sully",,50.531228,2.627339,,,0,
BET2TOLA,,"Ferme du Roy",,50.536199,2.648558,,,0,
BET2UNI2,,"Université d'Artois",,50.516123,2.659698,,,0,
BET2VARS,,"Varsovie",,50.520528,2.628337,,,0,
BEU1BALL,,"Grand Ballon",,50.514997,2.681473,,,0,
BEU1BH02,,"Place des Frères Robert",,50.517277,2.680614,,,0,
BEU1BH04,,"Delbecque",,50.518249,2.676900,,,0,
BEU1CALV,,"Beuvry Calvaire",,50.519459,2.678110,,,0,
BEU1CDQA,,"Collège Debeyre - Quai A",,50.518318,2.665042,,,0,
BEU1CDQB,,"Collège Debeyre - Quai B",,50.518210,2.665246,,,0,
BEU1CDQC,,"Collège Debeyre - Quai C",,50.518110,2.665477,,,0,
BEU1CDQD,,"Collège Debeyre - Quai D",,50.518458,2.665184,,,0,
BEU1CDQE,,"Collège Debeyre - Quai E",,50.518382,2.665403,,,0,
BEU1CDQF,,"Collège Debeyre - Quai F",,50.518264,2.665595,,,0,
BEU1CDQG,,"Collège Debeyre - Quai G",,50.518137,2.665718,,,0,
BEU1CENT,,"Ampère",,50.510789,2.683527,,,0,
BEU1CHAP,,"Chapelle",,50.539915,2.706576,,,0,
BEU1CHOT,,"Chambres d'Hôtes",,50.551726,2.686471,,,0,
BEU1DISP,,"Gosselin",,50.518016,2.684956,,,0,
BEU1EPLA,,"Eplaines",,50.524996,2.700372,,,0,
BEU1GARE,,"Beuvry Gare SNCF",,50.535267,2.692165,,,0,
BEU1GORR,,"Gorre",,50.539463,2.695747,,,0,
BEU1HLEF,,"Lefebvre",,50.525659,2.685374,,,0,
BEU1HOP2,,"Beuvry Hôpital Quai B",,50.516216,2.668028,,,0,
BEU1HOPI,,"Beuvry Hôpital Quai D",,50.516443,2.669064,,,0,
BEU1JBAI,,"Bailleul",,50.537966,2.691978,,,0,
BEU1JPRE,,"Ecole Prévert",,50.517964,2.675705,,,0,
BEU1LFAC,,"Les Facons",,50.557763,2.693061,,,0,
BEU1LHAM,,"Le Hamel",,50.553437,2.684117,,,0,
BEU1LYCE,,"Beuvry Lycée Yourcenar",,50.520433,2.665243,,,0,
BEU1MAIR,,"Beuvry Mairie",,50.522296,2.681706,,,0,
BEU1MONT,,"Montgolfier",,50.517240,2.687567,,,0,
BEU1PASS,,"Rue de la Passerelle",,50.532037,2.700958,,,0,
BEU1PAST,,"Beuvry Pasteur",,50.518397,2.680602,,,0,
BEU1PDOM,,"Pont Dominique",,50.523547,2.696414,,,0,
BEU1PEPI,,"Pépinière",,50.524604,2.690462,,,0,
BEU1PISC,,"Parc de la Loisne",,50.521767,2.684588,,,0,
BEU1PREO,,"Préolan",,50.527352,2.704569,,,0,
BEU1QUIN,,"Quinty",,50.521630,2.666025,,,0,
BEU1RDLI,,"Route de Lille",,50.515831,2.683094,,,0,
BEU1SAD1,,"Beuvry Allobus",,50.555344,2.687834,,,0,
BEU1SQMA,,"Square Martyrs",,50.533467,2.687287,,,0,
BEU1STAD,,"Beuvry Stade",,50.529776,2.685417,,,0,
BEU1TEUG,,"Teugneville",,50.514491,2.690686,,,0,
BEU2BALL,,"Grand Ballon",,50.514702,2.681712,,,0,
BEU2BH02,,"Place des Frères Robert",,50.517504,2.681068,,,0,
BEU2BH04,,"Delbecque",,50.518515,2.676669,,,0,
BEU2CAL2,,"Beuvry Calvaire",,50.519485,2.677997,,,0,
BEU2CENT,,"Ampère",,50.510096,2.684225,,,0,
BEU2CHAP,,"Chapelle",,50.539860,2.706998,,,0,
BEU2CHOT,,"Chambres d'Hôtes",,50.551459,2.685596,,,0,
BEU2DISP,,"Gosselin",,50.518106,2.685012,,,0,
BEU2EPLA,,"Eplaines",,50.524844,2.700163,,,0,
BEU2GORR,,"Gorre",,50.539520,2.695714,,,0,
BEU2HLEF,,"Lefebvre",,50.525560,2.685233,,,0,
BEU2HOP2,,"Beuvry Hôpital Quai A",,50.516296,2.667891,,,0,
BEU2HOPI,,"Beuvry Hôpital Quai C",,50.516501,2.669039,,,0,
BEU2JBAI,,"Bailleul",,50.537965,2.692442,,,0,
BEU2JPRE,,"Ecole Prévert",,50.517997,2.675608,,,0,
BEU2LFAC,,"Les Facons",,50.557780,2.693329,,,0,
BEU2LHAM,,"Le Hamel",,50.554259,2.685489,,,0,
BEU2MAIR,,"Beuvry Mairie",,50.522788,2.682090,,,0,
BEU2MONT,,"Montgolfier",,50.517130,2.687622,,,0,
BEU2PASS,,"Rue de la Passerelle",,50.531884,2.701267,,,0,
BEU2PAST,,"Beuvry Pasteur",,50.518413,2.680765,,,0,
BEU2PDOM,,"Pont Dominique",,50.523535,2.696252,,,0,
BEU2PEPI,,"Pépinière",,50.524666,2.690603,,,0,
BEU2PISC,,"Parc de la Loisne",,50.521462,2.684571,,,0,
BEU2PREO,,"Préolan",,50.528646,2.704030,,,0,
BEU2QUIN,,"Quinty",,50.522002,2.664480,,,0,
BEU2RDLI,,"Route de Lille",,50.515975,2.682445,,,0,
BEU2SAD1,,"Beuvry Allobus",,50.555349,2.687578,,,0,
BEU2SQMA,,"Square Martyrs",,50.533835,2.687219,,,0,
BEU2STA2,,"Beuvry Stade",,50.529864,2.685411,,,0,
BEU2TEUG,,"Teugneville",,50.514551,2.690955,,,0,
BIB111NO,,"Onze Novembre",,50.523840,2.878642,,,0,
BIB1CDVI,,"Cœur de Ville",,50.523155,2.868786,,,0,
BIB1CHAP,,"Chapelle",,50.523324,2.873843,,,0,
BIB1CIBO,,"Cité Boulanger",,50.512614,2.856416,,,0,
BIB1ECMA,,"Billy-Berclau Ecole Maternelle",,50.518385,2.866439,,,0,
BIB1EGLI,,"Billy-Berclau Eglise",,50.519475,2.868097,,,0,
BIB1FOS5,,"Fosse 5",,50.510508,2.849332,,,0,
BIB1MAIR,,"Billy-Berclau Mairie",,50.521583,2.871371,,,0,
BIB1PAST,,"Billy-Berclau Pasteur",,50.515693,2.861445,,,0,
BIB211NO,,"Onze Novembre",,50.523795,2.878803,,,0,
BIB2CHAP,,"Chapelle",,50.523856,2.875343,,,0,
BIB2CIBO,,"Cité Boulanger",,50.512534,2.856545,,,0,
BIB2ECMA,,"Billy-Berclau Ecole Maternelle",,50.518161,2.866181,,,0,
BIB2EGLI,,"Billy-Berclau Eglise",,50.519257,2.867954,,,0,
BIB2FOS5,,"Fosse 5",,50.510349,2.848796,,,0,
BIB2MAIR,,"Billy-Berclau Mairie",,50.521594,2.871533,,,0,
BIB2PAST,,"Billy-Berclau Pasteur",,50.515508,2.861371,,,0,
BIL1CAMU,,"Rue Oussekine",,50.421815,2.908986,,,0,
BIL1CCOM,,"Leclerc",,50.419906,2.910637,,,0,
BIL1CIME,,"Billy-Montigny Cimetière",,50.415549,2.918036,,,0,
BIL1CIPI,,"Pierrard",,50.412657,2.887416,,,0,
BIL1EPIN,,"Epinette",,50.412733,2.921253,,,0,
BIL1GARE,,"Billy-Montigny Gare SNCF",,50.415690,2.912148,,,0,
BIL1HDEQ,,"Diderot",,50.411612,2.911568,,,0,
BIL1MAIR,,"Billy-Montigny Mairie",,50.417866,2.912347,,,0,
BIL1PAUR,,"Léon Delfosse",,50.419901,2.903910,,,0,
BIL1RLAN,,"Langevin",,50.412607,2.901921,,,0,
BIL1SALE,,"Salengro",,50.419849,2.916970,,,0,
BIL1SLAN,,"Fosse 10",,50.412398,2.907813,,,0,
BIL1ZALC,,"Le Corbusier",,50.412740,2.894281,,,0,
BIL2CAMU,,"Rue Oussekine",,50.421776,2.909095,,,0,
BIL2CCOM,,"Leclerc",,50.419838,2.911032,,,0,
BIL2CIPI,,"Pierrard",,50.412599,2.887310,,,0,
BIL2EPIN,,"Epinette",,50.412723,2.921137,,,0,
BIL2HDEQ,,"Diderot",,50.411741,2.911535,,,0,
BIL2MAIR,,"Billy-Montigny Mairie",,50.417477,2.912084,,,0,
BIL2PAUR,,"Léon Delfosse",,50.419785,2.903824,,,0,
BIL2RLAN,,"Langevin",,50.412544,2.901833,,,0,
BIL2SALE,,"Salengro",,50.419764,2.916057,,,0,
BIL2SLAN,,"Fosse 10",,50.412390,2.908055,,,0,
BIL2ZALC,,"Le Corbusier",,50.412717,2.894384,,,0,
BOI14CHE,,"Izel",,50.387190,2.916481,,,0,
BOI1CALV,,"Calvaire",,50.379362,2.910897,,,0,
BOI1DIOD,,"Bois-Bernard Mairie",,50.384252,2.911868,,,0,
BOI1EGLI,,"Bois-Bernard Eglise",,50.381896,2.912710,,,0,
BOI1POLY,,"Bois-Bernard Polyclinique",,50.376636,2.910117,,,0,
BOI1RACH,,"Route d'Acheville",,50.381804,2.907269,,,0,
BOI1SAD1,,"Bois Bernard Allobus",,50.384318,2.911691,,,0,
BOI24CHE,,"Izel",,50.387048,2.916073,,,0,
BOI2CALV,,"Calvaire",,50.379259,2.910768,,,0,
BOI2DIOD,,"Bois-Bernard Mairie",,50.384213,2.911454,,,0,
BOI2EGLI,,"Bois-Bernard Eglise",,50.381913,2.912608,,,0,
BOI2RACH,,"Route d'Acheville",,50.381831,2.907200,,,0,
BOI2SAD1,,"Bois Bernard Allobus",,50.384364,2.912043,,,0,
BOI3DIOD,,"Bois-Bernard Mairie",,50.384014,2.911752,,,0,
BOU1BOUV,,"Bouvigny Mairie",,50.421395,2.670891,,,0,
BOU1BOYE,,"Lucheux",,50.431820,2.673107,,,0,
BOU1COSF,,"Bouvigny Collège Saint-François",,50.421392,2.668918,,,0,
BOU1MARQ,,"Marqueffles",,50.415312,2.685143,,,0,
BOU1MAYE,,"Mayeur",,50.424845,2.666103,,,0,
BOU1SAD1,,"Bouvigny-Boyeffles Allobus",,50.421398,2.673821,,,0,
BOU1SALE,,"Salengro",,50.420409,2.679450,,,0,
BOU2BOUV,,"Bouvigny Mairie",,50.421422,2.670997,,,0,
BOU2BOYE,,"Lucheux",,50.432251,2.673884,,,0,
BOU2MAYE,,"Mayeur",,50.424767,2.666906,,,0,
BOU2SAD1,,"Bouvigny-Boyeffles Allobus",,50.421373,2.674346,,,0,
BOU2SALE,,"Salengro",,50.420574,2.680527,,,0,
BRU14CHE,,"4 Chemins",,50.486360,2.558469,,,0,
BRU1ADMU,,"Alfred de Musset",,50.484684,2.567546,,,0,
BRU1ALER,,"Alfred Leroy",,50.476111,2.544241,,,0,
BRU1ALOU,,"Alouettes",,50.474273,2.544018,,,0,
BRU1AVIA,,"Aviateurs",,50.468093,2.543038,,,0,
BRU1BATN,,"Batna",,50.490170,2.524813,,,0,
BRU1BBON,,"Basly Bone",,50.491274,2.531112,,,0,
BRU1BLUM,,"Descamps",,50.483025,2.564983,,,0,
BRU1BOUL,,"Boulogne",,50.486843,2.531481,,,0,
BRU1CAMP,,"Campanules",,50.483152,2.570900,,,0,
BRU1CANA,,"Canada",,50.474014,2.548981,,,0,
BRU1CASE,,"Bruay Caisse de Secours",,50.479243,2.554768,,,0,
BRU1CCOM,,"Centre Commercial de la Lawe",,50.474060,2.536250,,,0,
BRU1CDHE,,"Côte d'Hesdigneul",,50.498600,2.582984,,,0,
BRU1CELE,,"Cité des électriciens",,50.482956,2.553949,,,0,
BRU1CHAM,,"Champagne",,50.477252,2.549473,,,0,
BRU1CHVE,,"Chemin Vert",,50.481051,2.562043,,,0,
BRU1CIME,,"Bruay Cimetière",,50.486793,2.524749,,,0,
BRU1CLIN,,"Bruay Clinique",,50.477536,2.552111,,,0,
BRU1CORO,,"Bruay Collège Rostand",,50.486285,2.555544,,,0,
BRU1CURI,,"Curie",,50.470065,2.539874,,,0,
BRU1CVER,,"Cap Vert",,50.472676,2.555648,,,0,
BRU1EMMA,,"Emmaüs",,50.505711,2.568696,,,0,
BRU1EUNI,,"Etats-Unis",,50.471809,2.554206,,,0,
BRU1FLAM,,"Flament",,50.471005,2.555829,,,0,
BRU1GARA,,"Quartier de la Gare",,50.476568,2.558675,,,0,
BRU1GARC,,"Quartier de la Gare",,50.476521,2.558756,,,0,
BRU1GASC,,"Gascogne",,50.475204,2.550730,,,0,
BRU1GAVR,,"Gavroche",,50.482968,2.532160,,,0,
BRU1IMPO,,"Bruay Centre des Impôts",,50.478010,2.536646,,,0,
BRU1JDBO,,"Jambe de Bois",,50.500701,2.563121,,,0,
BRU1LEPM,,"Bruay Lycée Mendès France",,50.484789,2.533860,,,0,
BRU1LMIC,,"Louise Michel",,50.487212,2.563704,,,0,
BRU1LOU2,,"Loubet",,50.488826,2.552128,,,0,
BRU1LVOL,,"La Volville",,50.493594,2.556200,,,0,
BRU1LYCA,,"Lycée Carnot",,50.479069,2.544766,,,0,
BRU1LYT2,,"Lycée des Travaux Publics",,50.495192,2.526986,,,0,
BRU1MAIR,,"Mairie de Labuissière",,50.489339,2.567763,,,0,
BRU1MARL,,"Bruay Hôtel de Ville",,50.483189,2.547006,,,0,
BRU1MARM,,"Ernest Wery",,50.484245,2.544456,,,0,
BRU1MART,,"Martel",,50.484246,2.530568,,,0,
BRU1MJUI,,"Maréchal Juin",,50.469086,2.549959,,,0,
BRU1MLEC,,"Maréchal Leclerc",,50.480030,2.543149,,,0,
BRU1PDGU,,"Bruay Centre Commercial",,50.492928,2.569959,,,0,
BRU1PDLL,,"Parc de La Lawe",,50.475518,2.530614,,,0,
BRU1PEGO,,"Pégoud",,50.467072,2.546470,,,0,
BRU1PEU1,,"Place de l'Europe-E1",,50.480883,2.548321,,,0,
BRU1PEU2,,"Place de l'Europe-E2",,50.480966,2.549129,,,0,
BRU1PEU3,,"Place de l'Europe-E3",,50.480746,2.549089,,,0,
BRU1PEU4,,"Place de l'Europe-E4",,50.480511,2.549058,,,0,
BRU1PEU5,,"Place de l'Europe-E5",,50.480674,2.549216,,,0,
BRU1PEU6,,"Place de l'Europe-E6",,50.480900,2.549247,,,0,
BRU1PEU7,,"Place de l'Europe-E7",,50.481107,2.549287,,,0,
BRU1PISC,,"Bruay Piscine",,50.473431,2.541071,,,0,
BRU1POLO,,"Pologne",,50.491728,2.528205,,,0,
BRU1POST,,"Bruay Poste",,50.491218,2.566085,,,0,
BRU1RBL2,,"Résidence Blum",,50.471150,2.537509,,,0,
BRU1RDFL,,"Résidence Les Fleuves",,50.486304,2.564910,,,0,
BRU1RDVI,,"Viveret",,50.498099,2.561644,,,0,
BRU1REPU,,"République",,50.479332,2.540669,,,0,
BRU1RIMB,,"Paul Daguercar",,50.484419,2.527120,,,0,
BRU1RMOU,,"Résidence Moulin",,50.496323,2.558599,,,0,
BRU1RPOI,,"Bruay Porte Nord",,50.495429,2.577552,,,0,
BRU1SMAR,,"Saint-Martin",,50.482569,2.538516,,,0,
BRU1SQBA,,"Square Basly",,50.489172,2.528953,,,0,
BRU1SQHE,,"Square Hemery",,50.477855,2.558629,,,0,
BRU1VELO,,"Bruay Vélodrome",,50.489278,2.562096,,,0,
BRU1VERD,,"Rue de Verdun",,50.485692,2.563073,,,0,
BRU1VHU2,,"Victor Hugo",,50.483514,2.536331,,,0,
BRU1ZI__,,"Z.A.L 3",,50.483045,2.522684,,,0,
BRU24CHE,,"4 Chemins",,50.486255,2.558500,,,0,
BRU2ADMU,,"Alfred de Musset",,50.484531,2.567531,,,0,
BRU2ALER,,"Alfred Leroy",,50.476211,2.544140,,,0,
BRU2ALOU,,"Alouettes",,50.474247,2.543893,,,0,
BRU2AVIA,,"Aviateurs",,50.468100,2.543124,,,0,
BRU2BATN,,"Batna",,50.490157,2.524742,,,0,
BRU2BBON,,"Basly Bone",,50.491210,2.531111,,,0,
BRU2BLUM,,"Descamps",,50.482975,2.565063,,,0,
BRU2BOUL,,"Boulogne",,50.486819,2.531373,,,0,
BRU2CAMP,,"Campanules",,50.483216,2.570492,,,0,
BRU2CANA,,"Canada",,50.474013,2.549291,,,0,
BRU2CASE,,"Bruay Caisse de Secours",,50.478900,2.554331,,,0,
BRU2CCOM,,"Centre Commercial de la Lawe",,50.474246,2.536454,,,0,
BRU2CDHE,,"Côte d'Hesdigneul",,50.498542,2.582801,,,0,
BRU2CELE,,"Cité des électriciens",,50.482951,2.554201,,,0,
BRU2CHAM,,"Champagne",,50.477071,2.549574,,,0,
BRU2CHVE,,"Chemin Vert",,50.481088,2.561891,,,0,
BRU2CIME,,"Bruay Cimetière",,50.486753,2.525063,,,0,
BRU2CLIN,,"Bruay Clinique",,50.477588,2.552160,,,0,
BRU2CURI,,"Curie",,50.470142,2.539886,,,0,
BRU2CVER,,"Cap Vert",,50.472827,2.555968,,,0,
BRU2EMMA,,"Emmaüs",,50.505753,2.569043,,,0,
BRU2EUNI,,"Etats-Unis",,50.471802,2.554096,,,0,
BRU2FLAM,,"Flament",,50.470964,2.555723,,,0,
BRU2GASC,,"Gascogne",,50.475155,2.550749,,,0,
BRU2GAVR,,"Gavroche",,50.483179,2.531956,,,0,
BRU2HDVI,,"Bruay Hôtel de Ville",,50.482817,2.548130,,,0,
BRU2IMPO,,"Bruay Centre des Impôts",,50.478047,2.536590,,,0,
BRU2JDBO,,"Jambe de Bois",,50.500717,2.563308,,,0,
BRU2LEPM,,"Bruay Lycée Mendès France",,50.484769,2.533713,,,0,
BRU2LMIC,,"Louise Michel",,50.487114,2.563409,,,0,
BRU2LOU2,,"Loubet",,50.487272,2.553587,,,0,
BRU2LVOL,,"La Volville",,50.493511,2.556107,,,0,
BRU2LYCA,,"Lycée Carnot",,50.479007,2.544787,,,0,
BRU2LYT2,,"Lycée des Travaux Publics",,50.495234,2.527092,,,0,
BRU2MAIR,,"Mairie de Labuissière",,50.489010,2.568293,,,0,
BRU2MARM,,"Ernest Wery",,50.484286,2.544443,,,0,
BRU2MART,,"Martel",,50.484246,2.530481,,,0,
BRU2MJUI,,"Maréchal Juin",,50.469184,2.550266,,,0,
BRU2MLEC,,"Maréchal Leclerc",,50.480068,2.543078,,,0,
BRU2PDGU,,"Bruay Centre Commercial",,50.492964,2.569810,,,0,
BRU2PDLL,,"Parc de La Lawe",,50.475452,2.530696,,,0,
BRU2PEGO,,"Pégoud",,50.467137,2.546450,,,0,
BRU2PISC,,"Bruay Piscine",,50.473146,2.541631,,,0,
BRU2POLO,,"Pologne",,50.491637,2.526967,,,0,
BRU2POST,,"Bruay Poste",,50.491237,2.565902,,,0,
BRU2RBL2,,"Résidence Blum",,50.471306,2.537147,,,0,
BRU2RDFL,,"Résidence Les Fleuves",,50.486375,2.564966,,,0,
BRU2RDVI,,"Viveret",,50.498054,2.561376,,,0,
BRU2REPU,,"République",,50.479285,2.540722,,,0,
BRU2RIMB,,"Paul Daguercar",,50.484381,2.527131,,,0,
BRU2RMOU,,"Résidence Moulin",,50.496541,2.558767,,,0,
BRU2RPOI,,"Bruay Porte Nord",,50.495388,2.576360,,,0,
BRU2SMAR,,"Saint-Martin",,50.482680,2.538584,,,0,
BRU2SQBA,,"Square Basly",,50.489002,2.529017,,,0,
BRU2SQHE,,"Square Hemery",,50.477820,2.558513,,,0,
BRU2VELO,,"Bruay Vélodrome",,50.489350,2.561951,,,0,
BRU2VERD,,"Rue de Verdun",,50.485609,2.563093,,,0,
BRU2VHU2,,"Victor Hugo",,50.483615,2.536338,,,0,
BRU2ZI__,,"Z.A.L 3",,50.483193,2.523148,,,0,
BUL1ALS2,,"Alsace",,50.443014,2.734297,,,0,
BUL1BREB,,"Cité des Brebis",,50.456829,2.721129,,,0,
BUL1CIME,,"Bully Cimetière",,50.445887,2.716689,,,0,
BUL1CLIN,,"Lamendin",,50.460662,2.717616,,,0,
BUL1COJV,,"Bully Collège Anita Conti",,50.436840,2.726618,,,0,
BUL1COMM,,"Sagnol",,50.438712,2.718813,,,0,
BUL1DEGA,,"De Gaulle",,50.438912,2.721426,,,0,
BUL1GAR2,,"Bully-Grenay Gare SNCF",,50.448086,2.734275,,,0,
BUL1JAUR,,"Jaurès",,50.437058,2.717998,,,0,
BUL1LALO,,"Cité des Alouettes",,50.438246,2.735696,,,0,
BUL1LORR,,"Lorraine",,50.440054,2.731383,,,0,
BUL1LYL2,,"Bully Lycée Lagrange",,50.437555,2.712749,,,0,
BUL1MARC,,"Fernand Marche",,50.445189,2.713022,,,0,
BUL1MINO,,"Z.A.L Minopole",,50.448964,2.719318,,,0,
BUL1OFFE,,"Offenbach",,50.439082,2.729423,,,0,
BUL1POST,,"Bully Poste",,50.445485,2.726627,,,0,
BUL1PVHU,,"Hugo",,50.445826,2.721709,,,0,
BUL1RLEC,,"Casimir Beugnet",,50.454030,2.720882,,,0,
BUL1SAGN,,"Colibris",,50.442196,2.711912,,,0,
BUL1SCHW,,"Schweitzer",,50.449153,2.712522,,,0,
BUL1SSMI,,"Bully Mairie",,50.441336,2.720420,,,0,
BUL2ALS2,,"Alsace",,50.442872,2.734200,,,0,
BUL2BREB,,"Cité des Brebis",,50.456783,2.721241,,,0,
BUL2CIME,,"Bully Cimetière",,50.445922,2.717125,,,0,
BUL2CLIN,,"Lamendin",,50.460905,2.717379,,,0,
BUL2COMM,,"Sagnol",,50.439106,2.718942,,,0,
BUL2DEGA,,"De Gaulle",,50.438882,2.721841,,,0,
BUL2GARE,,"Bully-Grenay Gare SNCF",,50.447974,2.734381,,,0,
BUL2JAUR,,"Jaurès",,50.437263,2.717957,,,0,
BUL2LALO,,"Cité des Alouettes",,50.438327,2.735612,,,0,
BUL2LORR,,"Lorraine",,50.439981,2.731664,,,0,
BUL2MARC,,"Fernand Marche",,50.445166,2.713068,,,0,
BUL2MINO,,"Z.A.L Minopole",,50.449046,2.719467,,,0,
BUL2OFFE,,"Offenbach",,50.439029,2.729197,,,0,
BUL2POST,,"Bully Poste",,50.445377,2.726559,,,0,
BUL2RLEC,,"Casimir Beugnet",,50.453886,2.721036,,,0,
BUL2SAGN,,"Colibris",,50.442287,2.711840,,,0,
BUL2SCHW,,"Schweitzer",,50.449034,2.712253,,,0,
BUL2SSMI,,"Bully Mairie",,50.441390,2.720350,,,0,
BUR1CHEA,,"Château d'eau",,50.525142,2.456949,,,0,
BUR1FAUB,,"Faubourg",,50.521659,2.456857,,,0,
BUR2CHEA,,"Château d'eau",,50.525247,2.456572,,,0,
BUR2FAUB,,"Faubourg",,50.522064,2.456537,,,0,
CAC1CDFA,,"Chemin du Fay",,50.479353,2.453913,,,0,
CAC1GARE,,"Camblain Gare SNCF",,50.480341,2.431250,,,0,
CAC1LCAL,,"Le Calvaire",,50.481455,2.468549,,,0,
CAC1LPLA,,"Camblain-Châtelain Mairie",,50.483582,2.464647,,,0,
CAC1LVER,,"La Verrerie",,50.482054,2.471426,,,0,
CAC1PAST,,"Rue Pasteur",,50.480350,2.461663,,,0,
CAC2CDFA,,"Chemin du Fay",,50.479466,2.453672,,,0,
CAC2LCAL,,"Le Calvaire",,50.481532,2.468531,,,0,
CAC2LVER,,"La Verrerie",,50.482150,2.471426,,,0,
CAC2PAST,,"Rue Pasteur",,50.480366,2.461375,,,0,
CAL1BELF,,"Belfort",,50.497396,2.480685,,,0,
CAL1CALO,,"Parc Calonnix",,50.494083,2.493123,,,0,
CAL1CALV,,"Delattre",,50.491354,2.485153,,,0,
CAL1CIME,,"Calonne Cimetière",,50.492424,2.487965,,,0,
CAL1DISP,,"Alsace-Lorraine",,50.496712,2.488146,,,0,
CAL1ECJV,,"Ecole Vilar",,50.486321,2.485460,,,0,
CAL1G4CH,,"Rue d'Ourton",,50.481087,2.477067,,,0,
CAL1GARE,,"Calonne Gare SNCF",,50.482950,2.480596,,,0,
CAL1HDCA,,"Hauts-de-Calonne",,50.495706,2.481955,,,0,
CAL1KATO,,"Katowice",,50.484427,2.490500,,,0,
CAL1MAIR,,"Calonne Collège Joliot Curie",,50.486501,2.483365,,,0,
CAL1MARC,,"Marconne",,50.485158,2.501414,,,0,
CAL1MARN,,"Marne",,50.493838,2.483511,,,0,
CAL1MSEL,,"Mont Saint-Eloi",,50.488282,2.506262,,,0,
CAL1PLAN,,"Calonne Mairie",,50.487643,2.484405,,,0,
CAL1QUEN,,"Quénehem",,50.492021,2.501240,,,0,
CAL1RDBR,,"Rue de Bruay",,50.484379,2.500273,,,0,
CAL1WABI,,"Wabinski",,50.484351,2.493889,,,0,
CAL2BELF,,"Belfort",,50.497376,2.480750,,,0,
CAL2CALO,,"Parc Calonnix",,50.494057,2.493144,,,0,
CAL2CALV,,"Delattre",,50.491360,2.485077,,,0,
CAL2CIME,,"Calonne Cimetière",,50.492352,2.488021,,,0,
CAL2DISP,,"Alsace-Lorraine",,50.496739,2.487950,,,0,
CAL2ECJV,,"Ecole Vilar",,50.486269,2.485570,,,0,
CAL2G4CH,,"Rue d'Ourton",,50.481080,2.476928,,,0,
CAL2GARE,,"Calonne Gare SNCF",,50.482905,2.480680,,,0,
CAL2HDCA,,"Hauts-de-Calonne",,50.495832,2.481962,,,0,
CAL2KATO,,"Katowice",,50.484460,2.490555,,,0,
CAL2MAIR,,"Calonne Collège Joliot Curie",,50.486427,2.483376,,,0,
CAL2MARC,,"Marconne",,50.485345,2.501865,,,0,
CAL2MARN,,"Marne",,50.493727,2.483431,,,0,
CAL2MSEL,,"Mont Saint-Eloi",,50.488264,2.506445,,,0,
CAL2PLAN,,"Calonne Mairie",,50.487593,2.484364,,,0,
CAL2QUEN,,"Quénehem",,50.491997,2.501385,,,0,
CAL2RDBR,,"Rue de Bruay",,50.484433,2.500132,,,0,
CAL2WABI,,"Wabinski",,50.484422,2.494702,,,0,
CAM1BBOU,,"Basse Boulogne",,50.510531,2.733569,,,0,
CAM1MAIR,,"Cambrin Mairie",,50.511647,2.740613,,,0,
CAM2BBOU,,"Basse Boulogne",,50.510511,2.734090,,,0,
CAM2MAIR,,"Cambrin Mairie",,50.511680,2.741483,,,0,
CAR1ARAG,,"Aragon",,50.491922,2.978773,,,0,
CAR1BASL,,"Basly",,50.485407,2.959955,,,0,
CAR1CHGU,,"Berlioz",,50.492792,2.973716,,,0,
CAR1CODV,,"Carvin Collège Vinci",,50.496430,2.977148,,,0,
CAR1COR,,"Carvin Collège Rousseau",,50.491446,2.946375,,,0,
CAR1COSD,,"Collège St Druon",,50.493748,2.956578,,,0,
CAR1ECOL,,"Carvin Ecole Apollinaire",,50.470940,2.939983,,,0,
CAR1ECSC,,"Sacré Coeur",,50.491358,2.957697,,,0,
CAR1ECUS,,"Ecussons",,50.497608,2.966021,,,0,
CAR1EGLI,,"Carvin Eglise",,50.497736,2.959591,,,0,
CAR1EINS,,"Einstein",,50.475861,2.968253,,,0,
CAR1EPIN,,"Epinoy",,50.484706,2.943555,,,0,
CAR1FPRE,,"Pressencé",,50.486937,2.952808,,,0,
CAR1FRET,,"Z.I Mont Soleau",,50.484852,2.938779,,,0,
CAR1HIRO,,"Hirondelles",,50.491440,2.971061,,,0,
CAR1IMEC,,"I.M.E Carambault",,50.497545,2.943895,,,0,
CAR1NDAM,,"Cité Notre Dame",,50.489377,2.942779,,,0,
CAR1NONE,,"Nonettes",,50.472991,2.924583,,,0,
CAR1OLOR,,"Oloron",,50.476051,2.939403,,,0,
CAR1ORA1,,"Oran",,50.473130,2.917562,,,0,
CAR1ORAN,,"Oran",,50.472470,2.917466,,,0,
CAR1PGAM,,"Gambetta",,50.486228,2.948809,,,0,
CAR1PGRE,,"Pont de Grès",,50.492166,2.982053,,,0,
CAR1PJJ3,,"Place Jean Jaurès",,50.493256,2.957430,,,0,
CAR1PJJ5,,"Place Jean Jaurès",,50.493329,2.957806,,,0,
CAR1PLAN,,"Plantigeon",,50.494742,2.971453,,,0,
CAR1POST,,"Carvin Poste",,50.488772,2.954028,,,0,
CAR1PROV,,"Provin",,50.495205,2.948192,,,0,
CAR1R200,,"Plachez",,50.491173,2.955770,,,0,
CAR1RONC,,"Ronchois",,50.481830,2.937640,,,0,
CAR1SJEA,,"Cité Saint-Jean",,50.473527,2.940486,,,0,
CAR1SPA3,,"Cité Saint-Paul",,50.472973,2.920012,,,0,
CAR1SQQU,,"Quinet",,50.491933,2.966410,,,0,
CAR1TELL,,"Tellier",,50.475234,2.971053,,,0,
CAR1TRIB,,"Triboulette",,50.498269,2.944974,,,0,
CAR1ZICH,,"ZI du Château",,50.477912,2.966784,,,0,
CAR1ZOLA,,"Carvin Zola",,50.493419,2.957387,,,0,
CAR2ARAG,,"Aragon",,50.491708,2.976956,,,0,
CAR2BASL,,"Basly",,50.485289,2.959954,,,0,
CAR2CHGU,,"Berlioz",,50.492405,2.973997,,,0,
CAR2ECOL,,"Carvin Ecole Apollinaire",,50.470956,2.939692,,,0,
CAR2ECUS,,"Ecussons",,50.497457,2.966245,,,0,
CAR2EGLI,,"Carvin Eglise",,50.497205,2.959614,,,0,
CAR2EPIN,,"Epinoy",,50.484757,2.944066,,,0,
CAR2FPRE,,"Pressencé",,50.486818,2.952844,,,0,
CAR2FRET,,"Z.I Mont Soleau",,50.485006,2.938817,,,0,
CAR2HIRO,,"Hirondelles",,50.491385,2.971080,,,0,
CAR2IMEC,,"I.M.E Carambault",,50.497761,2.943739,,,0,
CAR2LYCE,,"Carvin Lycée Diderot",,50.491322,2.946573,,,0,
CAR2NDAM,,"Cité Notre Dame",,50.489407,2.942985,,,0,
CAR2NONE,,"Nonettes",,50.472955,2.924677,,,0,
CAR2OLOR,,"Oloron",,50.475701,2.939732,,,0,
CAR2ORAN,,"Oran",,50.473413,2.919800,,,0,
CAR2PGAM,,"Gambetta",,50.486048,2.947644,,,0,
CAR2PGRE,,"Pont de Grès",,50.492103,2.982066,,,0,
CAR2PJJ4,,"Place Jean Jaurès",,50.493246,2.957524,,,0,
CAR2PLAN,,"Plantigeon",,50.494718,2.971431,,,0,
CAR2POST,,"Carvin Poste",,50.488708,2.954092,,,0,
CAR2PROV,,"Provin",,50.495495,2.948263,,,0,
CAR2R200,,"Plachez",,50.490699,2.955556,,,0,
CAR2RONC,,"Ronchois",,50.481670,2.937413,,,0,
CAR2SJEA,,"Cité Saint-Jean",,50.472544,2.940867,,,0,
CAR2SPA2,,"Cité Saint-Paul",,50.472932,2.920396,,,0,
CAR2SQQU,,"Quinet",,50.491760,2.966816,,,0,
CAR2TRIB,,"Triboulette",,50.498295,2.945135,,,0,
CAR2ZOLA,,"Carvin Zola",,50.493503,2.957314,,,0,
CAT1EGLI,,"Cauchy Eglise",,50.502464,2.454656,,,0,
CAT1GREB,,"Grébaut",,50.504056,2.450159,,,0,
CAT1LGUI,,"La Guillotine",,50.508470,2.439941,,,0,
CAT1LPOM,,"Les Pompes",,50.506584,2.441428,,,0,
CAT1NEDO,,"Rue d'Allouagne",,50.506259,2.453877,,,0,
CAT1PLAC,,"Cauchy Mairie",,50.502148,2.446891,,,0,
CAT1RDBO,,"Rue du Bois",,50.512788,2.446239,,,0,
CAT1RFLO,,"Rue de Floringhem",,50.500498,2.443968,,,0,
CAT1SNIC,,"Résidence Castelain",,50.510226,2.442547,,,0,
CAT2EGLI,,"Cauchy Eglise",,50.502463,2.454845,,,0,
CAT2GREB,,"Grébaut",,50.503841,2.449694,,,0,
CAT2LGUI,,"La Guillotine",,50.508389,2.440025,,,0,
CAT2LPOM,,"Les Pompes",,50.506387,2.441878,,,0,
CAT2NEDO,,"Rue d'Allouagne",,50.506313,2.453807,,,0,
CAT2PLAC,,"Cauchy Mairie",,50.502291,2.447018,,,0,
CAT2RDBO,,"Rue du Bois",,50.512994,2.446900,,,0,
CAT2RFLO,,"Rue de Floringhem",,50.500428,2.443652,,,0,
CAT2SNIC,,"Résidence Castelain",,50.510172,2.442688,,,0,
CAU1CALV,,"Caucourt Calvaire",,50.402515,2.572212,,,0,
CAU1ECOL,,"Caucourt Mairie Ecole",,50.399397,2.571227,,,0,
CAU1MAIR,,"Caucourt Mairie Ecole",,50.399383,2.571373,,,0,
CAU1RCAR,,"Rue Carré",,50.399981,2.570551,,,0,
CAU1RDHA,,"Rue d'en Haut",,50.397874,2.569613,,,0,
CAU2CALV,,"Caucourt Calvaire",,50.402331,2.572075,,,0,
CAU2RCAR,,"Rue Carré",,50.399899,2.570522,,,0,
CAY1CENT,,"Pasteur",,50.378938,2.703148,,,0,
CAY1DOMU,,"Dorés Musis",,50.379832,2.713103,,,0,
CAY1GAMB,,"Gambetta",,50.377522,2.699489,,,0,
CAY1MAIR,,"Carency Mairie",,50.379790,2.706760,,,0,
CAY1SAD1,,"Carency Allobus",,50.379921,2.708800,,,0,
CAY2CENT,,"Pasteur",,50.379090,2.703373,,,0,
CAY2DOMU,,"Dorés Musis",,50.380128,2.713781,,,0,
CAY2GAMB,,"Gambetta",,50.377564,2.699383,,,0,
CAY2MAIR,,"Carency Mairie",,50.379848,2.706828,,,0,
CAY2SAD1,,"Carency Allobus",,50.379931,2.709620,,,0,
CHO1CENT,,"Chocques Centre",,50.540863,2.572394,,,0,
CHO1DISP,,"Dr Chauvaux",,50.536226,2.564764,,,0,
CHO1ECDO,,"Ecole Dolto",,50.541143,2.574335,,,0,
CHO1LCRO,,"Le Croquet",,50.540048,2.579606,,,0,
CHO1RDBE,,"Rue de Béthune",,50.539646,2.585445,,,0,
CHO1SSAU,,"Saint-Sauveur",,50.537708,2.565988,,,0,
CHO2CENT,,"Chocques Centre",,50.540921,2.572309,,,0,
CHO2DISP,,"Dr Chauvaux",,50.535908,2.564628,,,0,
CHO2ECDO,,"Ecole Dolto",,50.541068,2.574257,,,0,
CHO2LCRO,,"Le Croquet",,50.539996,2.579348,,,0,
CHO2RDBE,,"Rue de Béthune",,50.539527,2.585529,,,0,
CHO2SSAU,,"Saint-Sauveur",,50.537615,2.565679,,,0,
COC1CHEA,,"Cité du Château d'Eau",,50.422293,3.008150,,,0,
COC1CIME,,"Courcelles Cimetière",,50.417275,3.021550,,,0,
COC1CIVI,,"Artois",,50.416785,3.025049,,,0,
COC1DELE,,"Delegorgue",,50.415094,3.016760,,,0,
COC1EGMA,,"Courcelles Mairie",,50.418432,3.016679,,,0,
COC1EZOL,,"Zola",,50.420610,3.015557,,,0,
COC1GAEA,,"Gare d'Eau",,50.428165,3.022008,,,0,
COC1GRNE,,"Gris Nez",,50.419461,3.027437,,,0,
COC1LMAR,,"La Marlière",,50.417737,3.005817,,,0,
COC1MOUR,,"Mourmelon",,50.408340,3.011460,,,0,
COC1RBRI,,"Briquet",,50.419027,3.013078,,,0,
COC1REPU,,"République",,50.410547,3.000655,,,0,
COC1RMOU,,"Rue de Fismes",,50.411860,3.014359,,,0,
COC1ROGL,,"Cité Rogliano",,50.420257,3.010427,,,0,
COC2CHEA,,"Cité du Château d'Eau",,50.422194,3.008092,,,0,
COC2CIME,,"Courcelles Cimetière",,50.417197,3.021457,,,0,
COC2CIVI,,"Artois",,50.416699,3.024969,,,0,
COC2DELE,,"Delegorgue",,50.414968,3.016843,,,0,
COC2EGMA,,"Courcelles Mairie",,50.418331,3.016821,,,0,
COC2EZOL,,"Zola",,50.420957,3.016053,,,0,
COC2GAEA,,"Gare d'Eau",,50.428075,3.022147,,,0,
COC2LMAR,,"La Marlière",,50.417703,3.005638,,,0,
COC2MOUR,,"Mourmelon",,50.408589,3.011744,,,0,
COC2RBRI,,"Briquet",,50.419022,3.013920,,,0,
COC2REPU,,"République",,50.410252,3.001277,,,0,
COC2RMOU,,"Rue de Fismes",,50.411938,3.014568,,,0,
COC2ROGL,,"Cité Rogliano",,50.420238,3.010299,,,0,
COU1BDLE,,"Lepoivre",,50.458744,2.942538,,,0,
COU1CBEU,,"Beugnet",,50.451610,2.940047,,,0,
COU1CCCO,,"Courrières Centre Commercial",,50.446070,2.944318,,,0,
COU1CCUL,,"Centre Culturel",,50.452417,2.938061,,,0,
COU1CENT,,"Route d'Harnes",,50.446091,2.921320,,,0,
COU1CGAR,,"Libération",,50.445190,2.920214,,,0,
COU1CHAU,,"Chinon",,50.447697,2.925147,,,0,
COU1CODE,,"Courrières Collège Debussy",,50.453335,2.950301,,,0,
COU1CURI,,"Curie",,50.453972,2.940847,,,0,
COU1ECJM,,"Courrières Ecole Jean Moulin",,50.453206,2.954538,,,0,
COU1GARE,,"Tilloy",,50.462428,2.942159,,,0,
COU1GOEL,,"Goélands",,50.456546,2.958719,,,0,
COU1LAMA,,"Lamartine",,50.457542,2.950945,,,0,
COU1LBLU,,"Rue Raoul Briquet",,50.451211,2.944230,,,0,
COU1MAIR,,"Courrières Mairie",,50.459074,2.945286,,,0,
COU1MOUL,,"Rue Jean Jaurès",,50.456076,2.944360,,,0,
COU1PBOU,,"Bouchez",,50.449676,2.940302,,,0,
COU1PSTR,,"Strasbourg",,50.461139,2.950255,,,0,
COU1ROTO,,"Rotois",,50.459731,2.955317,,,0,
COU1SEFE,,"Sévigné",,50.440509,2.924612,,,0,
COU2BDLE,,"Lepoivre",,50.458712,2.942662,,,0,
COU2CBEU,,"Beugnet",,50.451326,2.939885,,,0,
COU2CCUL,,"Centre Culturel",,50.452363,2.938173,,,0,
COU2CENT,,"Route d'Harnes",,50.445957,2.921220,,,0,
COU2CGAR,,"Libération",,50.445180,2.920396,,,0,
COU2CHAU,,"Chinon",,50.447758,2.925555,,,0,
COU2CODE,,"Courrières Collège Debussy",,50.453277,2.950263,,,0,
COU2CURI,,"Curie",,50.454008,2.941013,,,0,
COU2ECJM,,"Courrières Ecole Jean Moulin",,50.453331,2.954834,,,0,
COU2GARE,,"Tilloy",,50.462406,2.942301,,,0,
COU2GOEL,,"Goélands",,50.456538,2.958769,,,0,
COU2LAMA,,"Lamartine",,50.457570,2.951171,,,0,
COU2LBLU,,"Rue Raoul Briquet",,50.451230,2.944076,,,0,
COU2MAIR,,"Courrières Mairie",,50.459101,2.945267,,,0,
COU2MOU2,,"Rue Jean Jaurès",,50.456127,2.944634,,,0,
COU2PBOU,,"Bouchez",,50.449951,2.940870,,,0,
COU2PSTR,,"Strasbourg",,50.461192,2.950272,,,0,
COU2ROTO,,"Rotois",,50.459688,2.955419,,,0,
COU2SEFE,,"Sévigné",,50.440701,2.924545,,,0,
CUI1BASL,,"Basly",,50.520476,2.756656,,,0,
CUI1CIME,,"Cuinchy Cimetière",,50.516631,2.755436,,,0,
CUI1GARE,,"Cuinchy Gare SNCF",,50.521851,2.745315,,,0,
CUI1JJAU,,"Jean Jaurès",,50.527247,2.744995,,,0,
CUI1MAIR,,"Cuinchy Mairie",,50.521153,2.748010,,,0,
CUI1MRET,,"Maison de Retraite",,50.515940,2.748054,,,0,
CUI1NMON,,"Nouveau Monde",,50.514523,2.759109,,,0,
CUI1PDPI,,"Pont de Pierre",,50.532041,2.745521,,,0,
CUI1PLAN,,"Coq Ridé",,50.513365,2.747606,,,0,
CUI1RROB,,"Rue Robespierre",,50.528694,2.745761,,,0,
CUI1SAD1,,"Cuinchy Allobus",,50.521961,2.747891,,,0,
CUI1SALE,,"Salengro",,50.521586,2.750843,,,0,
CUI1ZOL2,,"Zola",,50.513566,2.752219,,,0,
CUI1ZOLA,,"Boulevard Hugo",,50.513248,2.751571,,,0,
CUI2BASL,,"Basly",,50.520953,2.756139,,,0,
CUI2CIME,,"Cuinchy Cimetière",,50.515951,2.754873,,,0,
CUI2JJAU,,"Jean Jaurès",,50.527690,2.744690,,,0,
CUI2MAIR,,"Cuinchy Mairie",,50.520649,2.747942,,,0,
CUI2MRET,,"Maison de Retraite",,50.516243,2.747979,,,0,
CUI2NMON,,"Nouveau Monde",,50.514434,2.759146,,,0,
CUI2PDPI,,"Pont de Pierre",,50.532176,2.745423,,,0,
CUI2PLAN,,"Coq Ridé",,50.513715,2.747538,,,0,
CUI2RROB,,"Rue Robespierre",,50.528623,2.745605,,,0,
CUI2SALE,,"Salengro",,50.521652,2.751177,,,0,
CUI2ZOL2,,"Zola",,50.513566,2.752177,,,0,
CUI2ZOLA,,"Boulevard Hugo",,50.513422,2.751883,,,0,
DIE1PLAC,,"Diéval Mairie",,50.435752,2.450258,,,0,
DIE1RD8M,,"Rue du 8 Mai",,50.437609,2.453087,,,0,
DIE2ELOY,,"Rue Eloy",,50.436323,2.444162,,,0,
DIE2PLAC,,"Diéval Mairie",,50.435734,2.450328,,,0,
DIE2RD8M,,"Rue du 8 mai",,50.437647,2.453254,,,0,
DIV119MA,,"Rue du 19 Mars",,50.469362,2.496580,,,0,
DIV1ALLE,,"Allende",,50.482696,2.504036,,,0,
DIV1BDRI,,"Bois du Rietz",,50.483297,2.503996,,,0,
DIV1BODE,,"Bodelot",,50.464817,2.495880,,,0,
DIV1BRIQ,,"Briqueterie",,50.473219,2.498901,,,0,
DIV1BRUN,,"Eugène Ionesco",,50.471579,2.490812,,,0,
DIV1CARO,,"Caron",,50.471248,2.516566,,,0,
DIV1CCOM,,"Divion Centre Commercial",,50.468729,2.503215,,,0,
DIV1CDEA,,"Château d'Eau",,50.466140,2.499187,,,0,
DIV1CDGR,,"Croix de Grès",,50.470449,2.510588,,,0,
DIV1CHAP,,"Chapelle",,50.482661,2.510720,,,0,
DIV1DES2,,"Place Viseur",,50.473985,2.488193,,,0,
DIV1DISP,,"Divion Jean Jaurès",,50.469274,2.507714,,,0,
DIV1FACH,,"Four à Chaux",,50.472265,2.526480,,,0,
DIV1FMAD,,"Fond Madame",,50.460558,2.519324,,,0,
DIV1JGUE,,"Jules Guesde",,50.473961,2.494306,,,0,
DIV1LBAC,,"Lebacq",,50.467791,2.512111,,,0,
DIV1LDRE,,"La Drève",,50.467578,2.502587,,,0,
DIV1LEGA,,"Legay",,50.479119,2.485889,,,0,
DIV1LIMA,,"Lima",,50.471148,2.521065,,,0,
DIV1MAIR,,"Divion Mairie",,50.472818,2.503764,,,0,
DIV1MOZA,,"Divion Mozart",,50.474021,2.528343,,,0,
DIV1PCL2,,"Divion Polyclinique",,50.477532,2.490174,,,0,
DIV1PISC,,"Divion Piscine",,50.470958,2.499119,,,0,
DIV1PKRU,,"Place Kruger",,50.467287,2.506627,,,0,
DIV1POL2,,"Polyclinique de La Clarence",,50.478473,2.490877,,,0,
DIV1RDSO,,"Rue du Soleil",,50.482761,2.514057,,,0,
DIV1STM2,,"Stade Mallez",,50.476154,2.491837,,,0,
DIV1ZOLA,,"Pierre Bachelet",,50.470881,2.503840,,,0,
DIV219MA,,"Rue du 19 Mars",,50.469296,2.496376,,,0,
DIV2ALLE,,"Allende",,50.482839,2.504303,,,0,
DIV2BDRI,,"Bois du Rietz",,50.483395,2.504165,,,0,
DIV2BODE,,"Bodelot",,50.464709,2.495865,,,0,
DIV2BRIQ,,"Briqueterie",,50.473031,2.498633,,,0,
DIV2BRUN,,"Eugène Ionesco",,50.471516,2.490699,,,0,
DIV2CARO,,"Caron",,50.471333,2.516503,,,0,
DIV2CCOM,,"Divion Centre Commercial",,50.468826,2.503183,,,0,
DIV2CDEA,,"Château d'Eau",,50.465979,2.499117,,,0,
DIV2CDGR,,"Croix de Grès",,50.470671,2.512121,,,0,
DIV2CHAP,,"Chapelle",,50.482785,2.511081,,,0,
DIV2DES2,,"Place Viseur",,50.474001,2.488442,,,0,
DIV2DISP,,"Divion Jean Jaurès",,50.469336,2.508128,,,0,
DIV2FACH,,"Four à Chaux",,50.472389,2.526498,,,0,
DIV2FMAD,,"Fond Madame",,50.460532,2.519142,,,0,
DIV2JGUE,,"Jules Guesde",,50.473889,2.494221,,,0,
DIV2LBAC,,"Lebacq",,50.468025,2.512098,,,0,
DIV2LDRE,,"La Drève",,50.467651,2.503170,,,0,
DIV2LEGA,,"Legay",,50.479002,2.485886,,,0,
DIV2LIMA,,"Lima",,50.471099,2.520529,,,0,
DIV2MAIR,,"Divion Mairie",,50.472683,2.503792,,,0,
DIV2MOZA,,"Divion Mozart",,50.473868,2.528328,,,0,
DIV2PCL2,,"Divion Polyclinique",,50.477382,2.489924,,,0,
DIV2PISC,,"Divion Piscine",,50.470913,2.499315,,,0,
DIV2PKRU,,"Place Kruger",,50.467243,2.506346,,,0,
DIV2RDSO,,"Rue du Soleil",,50.482794,2.514065,,,0,
DIV2STM2,,"Stade Mallez",,50.476073,2.491942,,,0,
DIV2ZOLA,,"Pierre Bachelet",,50.470881,2.503954,,,0,
DOU1BOUR,,"Bourcheuil",,50.431586,2.971371,,,0,
DOU1BOUV,,"Brassens",,50.437751,2.990106,,,0,
DOU1BUPA,,"Business Parc",,50.460039,2.985258,,,0,
DOU1CAEU,,"Campus Euralogistic",,50.459125,2.979125,,,0,
DOU1CARN,,"Dourges Mairie",,50.434753,2.985277,,,0,
DOU1COAF,,"Dourges Collège Franck",,50.428199,2.992600,,,0,
DOU1COMM,,"Dourges Commissariat",,50.434230,2.985790,,,0,
DOU1DIST,,"Distripole",,50.445993,2.977989,,,0,
DOU1EURA,,"Euralogistic 1 et 2",,50.454933,2.974702,,,0,
DOU1LANO,,"L.A Nord",,50.449767,2.974299,,,0,
DOU1LEMA,,"Lemaître",,50.435211,2.980468,,,0,
DOU1SALE,,"Dourges Gare SNCF",,50.431746,2.988820,,,0,
DOU1TERM,,"Terminal",,50.453111,2.976903,,,0,
DOU2BOUR,,"Bourcheuil",,50.431451,2.971440,,,0,
DOU2BOUV,,"Brassens",,50.437654,2.989866,,,0,
DOU2BUPA,,"Business Parc",,50.459991,2.985146,,,0,
DOU2CAEU,,"Campus Euralogistic",,50.459077,2.979383,,,0,
DOU2CARN,,"Dourges Mairie",,50.434815,2.985362,,,0,
DOU2COAF,,"Dourges Collège Franck",,50.428975,2.991875,,,0,
DOU2COMM,,"Dourges Commissariat",,50.433948,2.986418,,,0,
DOU2DIST,,"Distripole",,50.446034,2.978015,,,0,
DOU2EURA,,"Euralogistic 1 et 2",,50.455118,2.974735,,,0,
DOU2LANO,,"L.A Nord",,50.449660,2.974326,,,0,
DOU2LEMA,,"Lemaître",,50.435174,2.980155,,,0,
DOU2SALE,,"Dourges Gare SNCF",,50.431675,2.988777,,,0,
DOU2TERM,,"Terminal",,50.453190,2.976942,,,0,
DOV18MAI,,"Rue du 8 Mai",,50.507968,2.836349,,,0,
DOV1ADLO,,"Avenue de Londres",,50.523781,2.831458,,,0,
DOV1CALV,,"Jacobins",,50.508275,2.825047,,,0,
DOV1CARD,,"Cardiff",,50.523245,2.826451,,,0,
DOV1CELO,,"Carrefour Eloi",,50.508716,2.838030,,,0,
DOV1CICA,,"Cité Camus",,50.526298,2.811226,,,0,
DOV1CIDM,,"Cité du Maroc",,50.509662,2.843555,,,0,
DOV1COSE,,"Douvrin Collège Saint-Exupéry",,50.507418,2.839358,,,0,
DOV1DULI,,"Dulieux",,50.505236,2.838589,,,0,
DOV1ECCA,,"Douvrin Ecole les Capucines",,50.508261,2.832545,,,0,
DOV1FDME,,"Française de Mécanique",,50.518793,2.841691,,,0,
DOV1FERR,,"Ferrand",,50.515190,2.829779,,,0,
DOV1GARE,,"Cavaliers",,50.509026,2.813891,,,0,
DOV1LPOM,,"Route de Lens",,50.501723,2.809362,,,0,
DOV1LPOU,,"Douvrin Mairie",,50.508353,2.828253,,,0,
DOV1PDLB,,"Pont de La Bassée",,50.526183,2.803737,,,0,
DOV1PTHO,,"Place Thomas",,50.512137,2.833291,,,0,
DOV1RDGU,,"Rue de Guérous",,50.508921,2.808502,,,0,
DOV28MAI,,"Rue du 8 Mai",,50.507707,2.836627,,,0,
DOV2ABER,,"Avenue de Berlin",,50.527607,2.851604,,,0,
DOV2ADLO,,"Avenue de Londres",,50.523738,2.831466,,,0,
DOV2ASOF,,"Avenue de Sofia",,50.523492,2.853152,,,0,
DOV2BEST,,"Boulevard Est",,50.518093,2.854757,,,0,
DOV2BOUE,,"Boulevard Ouest",,50.519751,2.834596,,,0,
DOV2BSUD,,"Boulevard Sud",,50.512307,2.849504,,,0,
DOV2CALV,,"Jacobins",,50.508123,2.824728,,,0,
DOV2CARD,,"Cardiff",,50.523202,2.826525,,,0,
DOV2CELO,,"Carrefour Eloi",,50.508575,2.837297,,,0,
DOV2CICA,,"Cité Camus",,50.525843,2.812770,,,0,
DOV2CIDM,,"Cité du Maroc",,50.509607,2.843667,,,0,
DOV2DULI,,"Dulieux",,50.505114,2.838602,,,0,
DOV2ECMC,,"Douvrin Ecole Marie Curie",,50.507876,2.829802,,,0,
DOV2FERR,,"Ferrand",,50.514578,2.830181,,,0,
DOV2GARE,,"Cavaliers",,50.508991,2.813736,,,0,
DOV2LPOM,,"Route de Lens",,50.501794,2.809490,,,0,
DOV2LPOU,,"Douvrin Mairie",,50.508276,2.828188,,,0,
DOV2PDLB,,"Pont de La Bassée",,50.526181,2.803576,,,0,
DOV2PTHO,,"Place Thomas",,50.512071,2.833231,,,0,
DOV2RATH,,"Rue d'Athènes",,50.515764,2.851415,,,0,
DOV2RDDU,,"Rue de Dublin",,50.517765,2.836490,,,0,
DOV2RDGU,,"Rue de Guérous",,50.508866,2.808951,,,0,
DOV2RDLI,,"Rue de Lisbonne",,50.515053,2.837012,,,0,
DOV2REZO,,"Rue Emile Zola",,50.512046,2.837529,,,0,
DOV2ROSL,,"Rue d'Oslo",,50.523031,2.833300,,,0,
DRM1CDBO,,"Coin du Bois",,50.497178,2.628549,,,0,
DRM1MAI2,,"Drouvin Mairie",,50.494543,2.629136,,,0,
DRM2CDBO,,"Coin du Bois",,50.497062,2.628512,,,0,
DRM2MAI2,,"Drouvin Mairie",,50.494486,2.629109,,,0,
DRO1CRVA,,"Route d'Arras",,50.395011,2.928791,,,0,
DRO1LANV,,"Lanvin",,50.387186,2.920958,,,0,
DRO1LPAR,,"La Parisienne",,50.398614,2.936084,,,0,
DRO1ROUS,,"Roussillon",,50.388334,2.921637,,,0,
DRO1RPAL,,"Palma",,50.390468,2.921418,,,0,
DRO1SAD1,,"Drocourt Allobus",,50.392790,2.925883,,,0,
DRO1VILL,,"Drocourt Mairie",,50.392767,2.926067,,,0,
DRO2CRVA,,"Route d'Arras",,50.395083,2.928657,,,0,
DRO2LANV,,"Lanvin",,50.387269,2.920896,,,0,
DRO2LPAR,,"La Parisienne",,50.398245,2.934607,,,0,
DRO2ROUS,,"Roussillon",,50.388421,2.921540,,,0,
DRO2RPAL,,"Palma",,50.390104,2.920740,,,0,
DRO2SAD1,,"Drocourt Allobus",,50.392998,2.926342,,,0,
DRO2VILL,,"Drocourt Mairie",,50.392256,2.924785,,,0,
ELE1AER2,,"Rue Blériot",,50.421289,2.802702,,,0,
ELE1CIME,,"Bd Mendès France",,50.417199,2.819887,,,0,
ELE1HBO2,,"Z.A de Leauwette",,50.418815,2.805844,,,0,
ELE1RBEL,,"Bellevue",,50.417881,2.810653,,,0,
ELE2AER2,,"Rue Blériot",,50.421555,2.802659,,,0,
ELE2CIME,,"Bd Mendès France",,50.417834,2.818193,,,0,
ELE2EGLI,,"Eleu Mairie",,50.415689,2.816302,,,0,
ELE2HBO2,,"Z.A de Leauwette",,50.418900,2.805720,,,0,
ELE2MAIR,,"Eleu Mairie",,50.415542,2.817020,,,0,
ELE2RBEL,,"Bellevue",,50.417979,2.810736,,,0,
ESC1CEN2,,"Estree-Cauchy Centre",,50.398921,2.607037,,,0,
ESC1HDE2,,"Haut d'Estrée",,50.396319,2.611195,,,0,
ESC2CEN2,,"Estree-Cauchy Centre",,50.398822,2.606989,,,0,
ESC2HDE2,,"Haut d'Estrée",,50.396382,2.610885,,,0,
ESS18MAI,,"Warembourg",,50.546756,2.663038,,,0,
ESS1CEDR,,"Cèdres",,50.548557,2.657332,,,0,
ESS1CIME,,"Essars Cimetière",,50.550393,2.671343,,,0,
ESS1MAIR,,"Essars Mairie",,50.547905,2.665679,,,0,
ESS1SAD1,,"Essars Allobus",,50.547150,2.663602,,,0,
ESS1SEVE,,"Sévelingue",,50.550575,2.654792,,,0,
ESS1STAD,,"Essars Stade",,50.549500,2.660731,,,0,
ESS2CIME,,"Essars Cimetière",,50.550252,2.671212,,,0,
ESS2MAIR,,"Essars Mairie",,50.547648,2.665379,,,0,
ESS2RNAT,,"Essars Centre Commercial",,50.545857,2.660989,,,0,
ESS2SAD1,,"Essars Allobus",,50.546862,2.664023,,,0,
ESS2SEVE,,"Sévelingue",,50.550314,2.654484,,,0,
EST1CCUL,,"Estevelles Mairie",,50.474585,2.910306,,,0,
EST1MONU,,"Monument",,50.475823,2.906566,,,0,
EST2CCUL,,"Estevelles Mairie",,50.474366,2.911133,,,0,
EST2MONU,,"Monument",,50.475815,2.906462,,,0,
EVI1CIEM,,"Employés",,50.440316,3.021640,,,0,
EVI1CIHO,,"Horbois",,50.436701,3.031200,,,0,
EVI1CIVI,,"Victoire",,50.439013,3.026919,,,0,
EVI1EGLI,,"Evin-Malmaison Eglise",,50.438066,3.037533,,,0,
EVI1EZOL,,"Evin Zola",,50.443467,3.032952,,,0,
EVI1MAIR,,"Evin-Malmaison Mairie",,50.438321,3.032380,,,0,
EVI1MALM,,"Malmaison",,50.439268,3.042026,,,0,
EVI2BIZE,,"Bizet",,50.440447,3.028835,,,0,
EVI2CIEM,,"Employés",,50.440280,3.021371,,,0,
EVI2CIHO,,"Horbois",,50.436673,3.031326,,,0,
EVI2CIVI,,"Victoire",,50.438987,3.026722,,,0,
EVI2EGLI,,"Evin-Malmaison Eglise",,50.438004,3.037343,,,0,
EVI2EZOL,,"Evin Zola",,50.443406,3.033175,,,0,
EVI2MAIR,,"Evin-Malmaison Mairie",,50.438324,3.033653,,,0,
EVI2MALM,,"Malmaison",,50.439024,3.042289,,,0,
FES1EGLI,,"Festubert Mairie",,50.543223,2.736095,,,0,
FES1FAVR,,"Favril",,50.542354,2.723925,,,0,
FES1FLOM,,"Ferme Lombart",,50.538915,2.738748,,,0,
FES1GRUE,,"Grande Rue",,50.534966,2.743208,,,0,
FES1MOUL,,"Moulin",,50.541016,2.713496,,,0,
FES1SAD1,,"Festubert Allobus",,50.543499,2.736138,,,0,
FES1SDFE,,"Salle des Fetes",,50.543619,2.732888,,,0,
FES2EGLI,,"Festubert Mairie",,50.543317,2.736183,,,0,
FES2FAVR,,"Favril",,50.542206,2.722525,,,0,
FES2FLOM,,"Ferme Lombart",,50.539151,2.738306,,,0,
FES2GRUE,,"Grande Rue",,50.535136,2.743040,,,0,
FES2MOUL,,"Moulin",,50.541104,2.713975,,,0,
FES2SAD1,,"Festubert Allobus",,50.543436,2.735954,,,0,
FES2SDFE,,"Salle des Fetes",,50.543684,2.732269,,,0,
FLO1MAIR,,"Floringhem Mairie",,50.497203,2.426043,,,0,
FLO2MAIR,,"Floringhem Mairie",,50.497199,2.426207,,,0,
FOL1CHAP,,"Chapelle",,50.521364,2.600910,,,0,
FOL1GARE,,"Rue De Gaulle",,50.524827,2.605559,,,0,
FOL1MAIR,,"Fouquereuil Mairie",,50.518419,2.598607,,,0,
FOL1RDMA,,"Le Pont",,50.518348,2.603421,,,0,
FOL2CHAP,,"Chapelle",,50.521318,2.600722,,,0,
FOL2GARE,,"Rue De Gaulle",,50.524587,2.605232,,,0,
FOL2MAIR,,"Fouquereuil Mairie",,50.518231,2.598038,,,0,
FOQ1ACTI,,"Actipolis",,50.515741,2.622500,,,0,
FOQ1BH20,,"Ferme Pédagogique",,50.517093,2.619044,,,0,
FOQ1EURO,,"Fouquières Mairie",,50.512719,2.611737,,,0,
FOQ1OMIO,,"Ovide Miont",,50.515702,2.613262,,,0,
FOQ2ACTI,,"Actipolis",,50.515671,2.622188,,,0,
FOQ2BH20,,"Ferme Pédagogique",,50.517284,2.618737,,,0,
FOQ2EURO,,"Fouquières Mairie",,50.512772,2.611646,,,0,
FOU1ALLA,,"EHPAD",,50.424132,2.903770,,,0,
FOU1CAR2,,"Carnot",,50.422117,2.898490,,,0,
FOU1CDES,,"Desmoulins",,50.430106,2.907794,,,0,
FOU1COCO,,"Cocorico",,50.420185,2.895869,,,0,
FOU1DISP,,"Rue de la Liberté",,50.435284,2.903579,,,0,
FOU1EGLI,,"Fouquières-lez Lens Eglise",,50.428446,2.913280,,,0,
FOU1JGUE,,"Guesde",,50.424119,2.914997,,,0,
FOU1JJAU,,"Jaurès",,50.426667,2.910306,,,0,
FOU1PCOC,,"Cocorico",,50.419898,2.896701,,,0,
FOU1PFER,,"Fouquières-lez-Lens Mairie",,50.430016,2.911440,,,0,
FOU1VLFR,,"Salle Francois Mitterrand",,50.425508,2.907086,,,0,
FOU2ALLA,,"EHPAD",,50.424115,2.903827,,,0,
FOU2CAR2,,"Carnot",,50.422025,2.898451,,,0,
FOU2CDES,,"Desmoulins",,50.430053,2.907785,,,0,
FOU2COCO,,"Cocorico",,50.420066,2.896283,,,0,
FOU2DISP,,"Rue de la Liberté",,50.435179,2.903481,,,0,
FOU2EGLI,,"Fouquières-lez Lens Eglise",,50.428837,2.912843,,,0,
FOU2JGUE,,"Guesde",,50.424220,2.914746,,,0,
FOU2JJAU,,"Jaurès",,50.426696,2.910534,,,0,
FOU2PCOC,,"Cocorico",,50.419802,2.895914,,,0,
FOU2PFER,,"Fouquières-lez-Lens Mairie",,50.430129,2.911167,,,0,
FOU2VLFR,,"Salle Francois Mitterrand",,50.425387,2.906822,,,0,
FRE1BLEU,,"Bleuets",,50.422519,2.613790,,,0,
FRE1GARI,,"Garinelles",,50.423682,2.587505,,,0,
FRE1OBOU,,"Olhain Bourg",,50.425848,2.584103,,,0,
FRE1P8MA,,"Fresnicourt Mairie",,50.418257,2.599631,,,0,
FRE1RDBO,,"Rue du Bois",,50.425007,2.616459,,,0,
FRE1SALE,,"Salengro",,50.427142,2.616934,,,0,
FRE1SOUC,,"Souchez",,50.430285,2.615828,,,0,
FRE2BLEU,,"Bleuets",,50.422356,2.613492,,,0,
FRE2GARI,,"Garinelles",,50.423660,2.587800,,,0,
FRE2OBOU,,"Olhain Bourg",,50.426054,2.584002,,,0,
FRE2P8MA,,"Fresnicourt Mairie",,50.418116,2.600165,,,0,
FRE2RDBO,,"Rue du Bois",,50.424301,2.615570,,,0,
FRE2SALE,,"Salengro",,50.426971,2.616919,,,0,
FRE2SOUC,,"Souchez",,50.429944,2.615896,,,0,
GAU1EGLI,,"Gauchin-Légal Eglise",,50.415277,2.580477,,,0,
GAU1MAIR,,"Gauchin-Légal Mairie",,50.415328,2.580643,,,0,
GAU1RDCH,,"Rue du Château",,50.413354,2.584034,,,0,
GAU2EGLI,,"Gauchin-Légal Eglise",,50.415277,2.580301,,,0,
GAU2MAIR,,"Gauchin-Légal Mairie",,50.415279,2.580914,,,0,
GAU2RDCH,,"Rue du Château",,50.413274,2.583983,,,0,
GIB1EGLI,,"Givenchy Mairie",,50.529125,2.757847,,,0,
GIB1SAD1,,"Givenchy-les-La-Bassée Allobus",,50.529438,2.755152,,,0,
GIB2EGLI,,"Givenchy Mairie",,50.529048,2.757854,,,0,
GIB2SAD1,,"Givenchy-les-La-Bassée Allobus",,50.529352,2.755230,,,0,
GIV1CNON,,"Dégréaux",,50.392523,2.780686,,,0,
GIV1EGLI,,"Givenchy-en-Gohelle Mairie",,50.390823,2.772759,,,0,
GIV1SAD1,,"Givenchy-en-Gohelle Allobus",,50.390843,2.772728,,,0,
GIV1SALE,,"Salengro",,50.396280,2.770913,,,0,
GIV1VFEU,,"Vert Feuillage",,50.388781,2.777395,,,0,
GON1CAUR,,"Cauroy",,50.565721,2.606728,,,0,
GON1CHDE,,"Gonnehem Château d'Eau",,50.563161,2.604007,,,0,
GON2CAUR,,"Cauroy",,50.565620,2.606885,,,0,
GON2CHDE,,"Gonnehem Château d'Eau",,50.562861,2.603863,,,0,
GOS1DERU,,"Deruelle",,50.513493,2.589867,,,0,
GOS1LIBE,,"Salle des Fêtes",,50.507451,2.586513,,,0,
GOS1PLEP,,"Place Lepillet",,50.509714,2.583922,,,0,
GOS2DERU,,"Deruelle",,50.513511,2.589994,,,0,
GOS2PLEP,,"Place Lepillet",,50.509975,2.584161,,,0,
GOU1MAIR,,"Gouy-Servins Mairie",,50.403234,2.650178,,,0,
GOU1SAD1,,"Gouy-Servins Allobus",,50.403607,2.649819,,,0,
GOU2SAD1,,"Gouy-Servins Allobus",,50.403817,2.649843,,,0,
GRE1BAPF,,"Guadeloupe",,50.443996,2.752321,,,0,
GRE1BERL,,"Berlioz",,50.452962,2.754453,,,0,
GRE1BEUG,,"Beugnet",,50.448255,2.750446,,,0,
GRE1CARM,,"Grenay Eglise",,50.448933,2.737349,,,0,
GRE1CIME,,"Grenay Cimetière",,50.453332,2.743480,,,0,
GRE1CORM,,"Cormorans",,50.451112,2.741251,,,0,
GRE1DISP,,"Saint-Pierre",,50.446658,2.745149,,,0,
GRE1FLAN,,"Flandres",,50.451746,2.750151,,,0,
GRE1MAIR,,"Grenay Mairie",,50.448830,2.736651,,,0,
GRE1PICA,,"Picardie",,50.452013,2.757717,,,0,
GRE1PLAI,,"La Plaine",,50.447187,2.755819,,,0,
GRE1PPAD,,"Pierre Pad",,50.455386,2.732137,,,0,
GRE1SOUE,,"Saint-Ouen",,50.446245,2.741684,,,0,
GRE1TARG,,"Targette",,50.452980,2.746016,,,0,
GRE1TONK,,"Tonkin",,50.445184,2.753947,,,0,
GRE1VEDR,,"Védrines",,50.453076,2.737029,,,0,
GRE1VERB,,"Verbrugge",,50.449843,2.755841,,,0,
GRE2BERL,,"Berlioz",,50.452881,2.754081,,,0,
GRE2BEUG,,"Beugnet",,50.448539,2.750938,,,0,
GRE2CARM,,"Grenay Eglise",,50.448979,2.737302,,,0,
GRE2CIME,,"Grenay Cimetière",,50.453183,2.743266,,,0,
GRE2CORM,,"Cormorans",,50.451195,2.741212,,,0,
GRE2DISP,,"Saint-Pierre",,50.446738,2.745682,,,0,
GRE2FLAN,,"Flandres",,50.451766,2.750139,,,0,
GRE2MAIR,,"Grenay Mairie",,50.449033,2.736279,,,0,
GRE2PICA,,"Picardie",,50.452029,2.757760,,,0,
GRE2PLAI,,"La Plaine",,50.447231,2.755958,,,0,
GRE2PPAD,,"Pierre Pad",,50.455382,2.732066,,,0,
GRE2SOUE,,"Saint-Ouen",,50.446150,2.741365,,,0,
GRE2TARG,,"Targette",,50.453070,2.746063,,,0,
GRE2TONK,,"Tonkin",,50.445210,2.754130,,,0,
GRE2VEDR,,"Védrines",,50.453605,2.737947,,,0,
GRE2VERB,,"Verbrugge",,50.449638,2.755474,,,0,
GRE3BEUG,,"Beugnet",,50.448374,2.750128,,,0,
HAI1BODE,,"Bodelot",,50.474280,2.573136,,,0,
HAI1DIDE,,"Diderot",,50.480414,2.590732,,,0,
HAI1DUBO,,"Dubois",,50.473317,2.579141,,,0,
HAI1EGD6,,"Haillicourt Eglise du 6",,50.468999,2.559499,,,0,
HAI1EGLI,,"Haillicourt Mairie",,50.474999,2.583431,,,0,
HAI1FAUV,,"Fauvettes",,50.480830,2.588854,,,0,
HAI1FOS2,,"Fosse 2",,50.477856,2.581786,,,0,
HAI1FOS6,,"Fosse 6",,50.466584,2.564356,,,0,
HAI1GSAN,,"George Sand",,50.471780,2.582521,,,0,
HAI1HORT,,"Hortensias",,50.468354,2.568090,,,0,
HAI1KOEN,,"Koenig",,50.477104,2.585283,,,0,
HAI1LCRO,,"La Croisée",,50.475881,2.585977,,,0,
HAI1LIBE,,"Libération",,50.479972,2.577732,,,0,
HAI1LREX,,"Le Rex",,50.464208,2.559669,,,0,
HAI1PD2B,,"Place du 2 Bis",,50.478782,2.585446,,,0,
HAI1QDBU,,"Quai de Busnes",,50.475369,2.568808,,,0,
HAI1RENA,,"Renan",,50.471195,2.579265,,,0,
HAI1RHAI,,"Route d'Haillicourt",,50.476518,2.564891,,,0,
HAI1ZOLA,,"Zola",,50.470648,2.574454,,,0,
HAI2BODE,,"Bodelot",,50.474207,2.573172,,,0,
HAI2DIDE,,"Diderot",,50.480646,2.590812,,,0,
HAI2DUBO,,"Dubois",,50.473167,2.579066,,,0,
HAI2EGD6,,"Haillicourt Eglise du 6",,50.469024,2.559658,,,0,
HAI2EGLI,,"Haillicourt Mairie",,50.474829,2.583514,,,0,
HAI2FAUV,,"Fauvettes",,50.481206,2.588804,,,0,
HAI2FOS2,,"Fosse 2",,50.477865,2.581884,,,0,
HAI2FOS6,,"Fosse 6",,50.466533,2.564237,,,0,
HAI2GSAN,,"George Sand",,50.471943,2.582052,,,0,
HAI2HORT,,"Hortensias",,50.468470,2.568582,,,0,
HAI2KOEN,,"Koenig",,50.477248,2.585255,,,0,
HAI2LCRO,,"La Croisée",,50.475891,2.586084,,,0,
HAI2LIBE,,"Libération",,50.479955,2.577579,,,0,
HAI2LREX,,"Le Rex",,50.464190,2.559776,,,0,
HAI2PD2B,,"Place du 2 Bis",,50.479334,2.585013,,,0,
HAI2QDBU,,"Quai de Busnes",,50.475323,2.568709,,,0,
HAI2RENA,,"Renan",,50.471239,2.579335,,,0,
HAI2RHAI,,"Route d'Haillicourt",,50.476736,2.564623,,,0,
HAI2ZOLA,,"Zola",,50.470647,2.574721,,,0,
HAR1AFOS,,"Sarrebourg",,50.441730,2.885162,,,0,
HAR1BARB,,"Barbusse",,50.447235,2.903052,,,0,
HAR1CHAT,,"Château d'Eau",,50.438648,2.901156,,,0,
HAR1CIAR,,"Artois",,50.452618,2.912035,,,0,
HAR1CIME,,"Verdun",,50.446456,2.886442,,,0,
HAR1CIOR,,"Debarge",,50.442705,2.896128,,,0,
HAR1COVE,,"Coulée Verte",,50.441564,2.891285,,,0,
HAR1COVH,,"Harnes Collège Hugo",,50.450143,2.902987,,,0,
HAR1GMO1,,"Grand Moulin",,50.448211,2.914343,,,0,
HAR1GMO3,,"Chemin du Bois",,50.449467,2.911637,,,0,
HAR1HBEL,,"Bellevue",,50.439299,2.878067,,,0,
HAR1HDV2,,"Harnes Mairie",,50.444961,2.902815,,,0,
HAR1HDVH,,"Harnes Marché",,50.444837,2.903344,,,0,
HAR1PALO,,"Espace Mimoun",,50.445104,2.880986,,,0,
HAR1REPU,,"Valmy",,50.452514,2.905686,,,0,
HAR1RLEN,,"Route de Lens",,50.440218,2.883402,,,0,
HAR1SMOU,,"Athènes",,50.445774,2.894914,,,0,
HAR2AFOS,,"Sarrebourg",,50.441670,2.885310,,,0,
HAR2BARB,,"Barbusse",,50.447688,2.902228,,,0,
HAR2CHAT,,"Château d'Eau",,50.438277,2.901143,,,0,
HAR2CIAR,,"Artois",,50.452784,2.911884,,,0,
HAR2CIME,,"Verdun",,50.446497,2.886831,,,0,
HAR2CIOR,,"Debarge",,50.442822,2.896612,,,0,
HAR2COVE,,"Coulée Verte",,50.441429,2.891438,,,0,
HAR2COVH,,"Harnes Collège Hugo",,50.449528,2.901996,,,0,
HAR2GMO1,,"Grand Moulin",,50.448305,2.914143,,,0,
HAR2GMO3,,"Chemin du Bois",,50.449780,2.911639,,,0,
HAR2HBEL,,"Bellevue",,50.439226,2.878418,,,0,
HAR2HDV2,,"Harnes Mairie",,50.445434,2.904451,,,0,
HAR2HDVH,,"Harnes Marché",,50.444716,2.903363,,,0,
HAR2PALO,,"Espace Mimoun",,50.445100,2.881235,,,0,
HAR2REPU,,"Valmy",,50.452661,2.905559,,,0,
HAR2RLEN,,"Route de Lens",,50.440583,2.886061,,,0,
HAR2SMOU,,"Athènes",,50.445702,2.895026,,,0,
HAS18MAI,,"Rue du 8 mai 1945",,50.508115,2.798509,,,0,
HAS1CDEA,,"Château d'Eau",,50.508541,2.792657,,,0,
HAS1CENT,,"Haisnes Mairie",,50.508485,2.803025,,,0,
HAS1CIDE,,"Cité Dejong",,50.516368,2.805997,,,0,
HAS1DOUC,,"Rue Salengro",,50.508729,2.806878,,,0,
HAS1LPOS,,"Haisnes Poste",,50.505446,2.808534,,,0,
HAS1MAPA,,"MAPAD Les Héliantines",,50.506052,2.803466,,,0,
HAS1PANI,,"Rue du Pré de Pâques",,50.511783,2.807074,,,0,
HAS1SELI,,"Saint-Elie",,50.494974,2.809352,,,0,
HAS28MAI,,"Rue du 8 mai 1945",,50.508165,2.798561,,,0,
HAS2CDEA,,"Château d'Eau",,50.508660,2.792207,,,0,
HAS2CENT,,"Haisnes Mairie",,50.508362,2.802032,,,0,
HAS2CIDE,,"Cité Dejong",,50.516402,2.806129,,,0,
HAS2DOUC,,"Rue Salengro",,50.508784,2.806784,,,0,
HAS2LPOS,,"Haisnes Poste",,50.505540,2.808627,,,0,
HAS2MAPA,,"MAPAD Les Héliantines",,50.506091,2.803468,,,0,
HAS2PANI,,"Rue du Pré de Pâques",,50.511974,2.807182,,,0,
HAS2SELI,,"Saint-Elie",,50.494974,2.809477,,,0,
HEM1HERM,,"Rue Baraffles",,50.419530,2.561307,,,0,
HEM2HERM,,"Rue Baraffles",,50.419491,2.560684,,,0,
HEN1ABRI,,"Briand",,50.425531,2.955268,,,0,
HEN1ANPE,,"Prévert",,50.421367,2.957043,,,0,
HEN1BALO,,"Base de Loisirs",,50.411128,2.969207,,,0,
HEN1BLER,,"Willy Brandt",,50.423641,2.948532,,,0,
HEN1BORN,,"Borne des Loups",,50.416851,2.975230,,,0,
HEN1BTUH,,"P.A La Peupleraie",,50.404473,2.960331,,,0,
HEN1BUIS,,"Buisse",,50.439157,2.962735,,,0,
HEN1CCRI,,"Les Rivières",,50.408234,2.969537,,,0,
HEN1CCWA,,"Wakefield",,50.407167,2.972060,,,0,
HEN1CFON,,"Fontaine",,50.391224,2.964597,,,0,
HEN1CHAR,,"Hénin Centre Hospitalier",,50.429942,2.946142,,,0,
HEN1CHBI,,"Leterme",,50.407483,2.930419,,,0,
HEN1COJM,,"Hénin Collège Macé",,50.409182,2.937123,,,0,
HEN1COLI,,"Girondins",,50.418196,2.947061,,,0,
HEN1CPAY,,"Cimetière Paysager",,50.436104,2.945147,,,0,
HEN1DARA,,"Hénin Lycée Darchicourt - Quai A",,50.410831,2.959827,,,0,
HEN1DARB,,"Hénin Lycée Darchicourt - Quai B",,50.410847,2.959597,,,0,
HEN1DARC,,"Hénin Lycée Darchicourt - Quai C",,50.410862,2.959336,,,0,
HEN1DARD,,"Hénin Lycée Darchicourt - Quai D",,50.410879,2.959103,,,0,
HEN1DEBU,,"Debussy",,50.388041,2.971281,,,0,
HEN1DEGA,,"De Gaulle",,50.419661,2.939228,,,0,
HEN1DELA,,"Maison de Quartier Thorez",,50.430143,2.951246,,,0,
HEN1DELR,,"Delrue",,50.410615,2.926082,,,0,
HEN1DEPO,,"Déportés",,50.427335,2.944363,,,0,
HEN1EDF_,,"Sainte-Henriette",,50.418285,2.969501,,,0,
HEN1EGLI,,"Eglise Saint-Martin",,50.390635,2.969198,,,0,
HEN1EGRU,,"Gruyelle",,50.421576,2.955190,,,0,
HEN1EISE,,"ESAT",,50.425763,2.940808,,,0,
HEN1ETHO,,"Eugène Thomas",,50.393146,2.969357,,,0,
HEN1GAR2,,"Hénin Gare SNCF",,50.417780,2.953128,,,0,
HEN1GARE,,"Coron Ramon",,50.417259,2.950232,,,0,
HEN1GAUM,,"Hénin Cinémas",,50.406860,2.975485,,,0,
HEN1GDEL,,"Delory",,50.404339,2.940420,,,0,
HEN1GLUS,,"Gay Lussac",,50.403741,2.964772,,,0,
HEN1HBMA,,"Hénin-Beaumont Mairie - Quai A",,50.420329,2.945781,,,0,
HEN1HDAR,,"Robiaud",,50.417594,2.963274,,,0,
HEN1JMOU,,"Moulin",,50.423237,2.943250,,,0,
HEN1JVER,,"Verne",,50.419319,2.965371,,,0,
HEN1KENN,,"Kennedy",,50.425007,2.957622,,,0,
HEN1LFON,,"Capelle",,50.401101,2.938374,,,0,
HEN1LPER,,"La Perche",,50.416049,2.946747,,,0,
HEN1LYP1,,"Hénin Lycée Pasteur",,50.430831,2.948647,,,0,
HEN1LYP3,,"Hénin Lycée Pasteur",,50.430598,2.948755,,,0,
HEN1LYS1,,"Hénin Lycée Senez",,50.408140,2.959212,,,0,
HEN1MALA,,"Rimbaud",,50.420290,2.957978,,,0,
HEN1MELU,,"Mélusine",,50.415196,2.965491,,,0,
HEN1MICH,,"Michelet",,50.411361,2.944886,,,0,
HEN1PARC,,"Pommier Ch Noyelles",,50.402166,2.978411,,,0,
HEN1PCAR,,"Espace Lumière",,50.420412,2.948397,,,0,
HEN1PIET,,"Ecoparc",,50.410310,2.964214,,,0,
HEN1POLY,,"Hénin Polyclinique",,50.434069,2.950467,,,0,
HEN1PONC,,"Ponchelet",,50.427785,2.953077,,,0,
HEN1PREP,,"Place de la République",,50.421811,2.946294,,,0,
HEN1R2VI,,"Deux Villes",,50.422865,2.938995,,,0,
HEN1RDOU,,"Domagalla",,50.427383,2.963340,,,0,
HEN1SCRE,,"Scrève",,50.391323,2.960847,,,0,
HEN1SHEN,,"Saint-Henri",,50.408933,2.942896,,,0,
HEN1SQGP,,"Péri",,50.419589,2.943019,,,0,
HEN1STAD,,"Ballekens",,50.387723,2.969547,,,0,
HEN1STHE,,"Birembaut",,50.419716,2.931589,,,0,
HEN1TAUV,,"Tour d'Auvergne",,50.400605,2.965786,,,0,
HEN1TEPO,,"Pommier Bvd Thomas",,50.396117,2.973102,,,0,
HEN1TIL2,,"Tilloy",,50.414146,2.950956,,,0,
HEN2ABRI,,"Briand",,50.425612,2.955157,,,0,
HEN2ANPE,,"Prévert",,50.421176,2.957560,,,0,
HEN2BALO,,"Base de Loisirs",,50.411077,2.969184,,,0,
HEN2BLER,,"Willy Brandt",,50.423781,2.948723,,,0,
HEN2BORN,,"Borne des Loups",,50.416724,2.975382,,,0,
HEN2BTUH,,"P.A La Peupleraie",,50.404691,2.959701,,,0,
HEN2BUIS,,"Buisse",,50.439163,2.962495,,,0,
HEN2CCRI,,"Les Rivières",,50.408113,2.969699,,,0,
HEN2CCWA,,"Wakefield",,50.406960,2.972310,,,0,
HEN2CFON,,"Fontaine",,50.391105,2.965260,,,0,
HEN2CHAR,,"Hénin Centre Hospitalier",,50.429797,2.946133,,,0,
HEN2CHBI,,"Leterme",,50.407573,2.930364,,,0,
HEN2COJM,,"Hénin Collège Macé",,50.409303,2.936940,,,0,
HEN2COLI,,"Girondins",,50.418439,2.947008,,,0,
HEN2CPAY,,"Cimetière Paysager",,50.435761,2.945340,,,0,
HEN2DEBU,,"Debussy",,50.387996,2.971201,,,0,
HEN2DEGA,,"De Gaulle",,50.419553,2.939297,,,0,
HEN2DELA,,"Maison de Quartier Thorez",,50.430149,2.951347,,,0,
HEN2DELR,,"Delrue",,50.410471,2.926319,,,0,
HEN2DEPO,,"Déportés",,50.427469,2.944519,,,0,
HEN2EDF_,,"Sainte-Henriette",,50.418236,2.969391,,,0,
HEN2EGLI,,"Eglise Saint-Martin",,50.390196,2.969221,,,0,
HEN2EGRU,,"Gruyelle",,50.421525,2.955211,,,0,
HEN2EISE,,"ESAT",,50.425750,2.941148,,,0,
HEN2ESLU,,"Espace Lumière",,50.420523,2.949626,,,0,
HEN2ETHO,,"Eugène Thomas",,50.393647,2.970216,,,0,
HEN2GAR2,,"Hénin Gare SNCF",,50.417737,2.953115,,,0,
HEN2GARE,,"Coron Ramon",,50.417350,2.950021,,,0,
HEN2GAUM,,"Hénin Cinémas",,50.406557,2.975389,,,0,
HEN2GDEL,,"Delory",,50.404036,2.940024,,,0,
HEN2GLUS,,"Gay Lussac",,50.403571,2.964714,,,0,
HEN2HBMA,,"Hénin-Beaumont Mairie - Quai B",,50.420271,2.947547,,,0,
HEN2HDAR,,"Robiaud",,50.417781,2.963515,,,0,
HEN2JMOU,,"Moulin",,50.423212,2.942325,,,0,
HEN2JVER,,"Verne",,50.419350,2.964936,,,0,
HEN2KENN,,"Kennedy",,50.424988,2.957874,,,0,
HEN2LFON,,"Capelle",,50.401325,2.938292,,,0,
HEN2LPER,,"La Perche",,50.415941,2.946569,,,0,
HEN2LYP2,,"Hénin Lycée Pasteur",,50.430672,2.949048,,,0,
HEN2LYS1,,"Hénin Lycée Senez",,50.407932,2.959405,,,0,
HEN2MALA,,"Rimbaud",,50.420766,2.958093,,,0,
HEN2MELU,,"Mélusine",,50.415315,2.965071,,,0,
HEN2MICH,,"Michelet",,50.411233,2.944675,,,0,
HEN2PARC,,"Pommier Ch Noyelles",,50.402252,2.978334,,,0,
HEN2PIET,,"Ecoparc",,50.410337,2.964356,,,0,
HEN2PONC,,"Ponchelet",,50.427969,2.953135,,,0,
HEN2PREP,,"Place de la République",,50.421810,2.946408,,,0,
HEN2R2VI,,"Deux Villes",,50.422947,2.938975,,,0,
HEN2RDOU,,"Domagalla",,50.427249,2.963268,,,0,
HEN2SCRE,,"Scrève",,50.391357,2.960046,,,0,
HEN2SHEN,,"Saint-Henri",,50.408931,2.942270,,,0,
HEN2SQGP,,"Péri",,50.419553,2.943109,,,0,
HEN2STAD,,"Ballekens",,50.387727,2.969658,,,0,
HEN2STHE,,"Birembaut",,50.419621,2.931779,,,0,
HEN2TAUV,,"Tour d'Auvergne",,50.400551,2.965715,,,0,
HEN2TEPO,,"Pommier Bvd Thomas",,50.396094,2.973030,,,0,
HEN2TILL,,"Tilloy",,50.414156,2.950770,,,0,
HEN3SHEN,,"Saint-Henri",,50.408776,2.942533,,,0,
HER1BECL,,"Champs d'Argent",,50.445545,2.660454,,,0,
HER1CALV,,"Rue Emile Basly",,50.447271,2.651964,,,0,
HER1CDEA,,"Château d'Eau",,50.460833,2.671046,,,0,
HER1DHES,,"Dhesse",,50.458589,2.670571,,,0,
HER1GEND,,"Rue de la Gendarmerie",,50.439818,2.647492,,,0,
HER1HAYE,,"Hayette",,50.450925,2.638775,,,0,
HER1HCRO,,"Hersin Collège Rolland",,50.446476,2.644758,,,0,
HER1JJAU,,"Jean Jaurès",,50.444964,2.646744,,,0,
HER1LAME,,"Lamendin",,50.444401,2.651862,,,0,
HER1LOIS,,"Place des Oiseaux",,50.438401,2.651172,,,0,
HER1LPIE,,"Longue Pierre",,50.449070,2.642067,,,0,
HER1MAIR,,"Hersin-Coupigny Mairie",,50.448718,2.649816,,,0,
HER1MREM,,"Marcel Rémi",,50.456749,2.668327,,,0,
HER1PDAN,,"Parc des Anglais",,50.441562,2.653416,,,0,
HER1PISC,,"Hersin Piscine",,50.448121,2.646052,,,0,
HER1SALE,,"Place Salengro",,50.440944,2.643757,,,0,
HER1TIRT,,"Tirtaine",,50.443243,2.644793,,,0,
HER2BECL,,"Champs d'Argent",,50.445689,2.660385,,,0,
HER2CALV,,"Rue Emile Basly",,50.447343,2.652161,,,0,
HER2CDEA,,"Château d'Eau",,50.460985,2.671045,,,0,
HER2DHES,,"Dhesse",,50.458469,2.670504,,,0,
HER2GEND,,"Rue de la Gendarmerie",,50.439810,2.647450,,,0,
HER2HAYE,,"Hayette",,50.451135,2.638594,,,0,
HER2JJAU,,"Jean Jaurès",,50.445066,2.646607,,,0,
HER2LAME,,"Lamendin",,50.444109,2.651883,,,0,
HER2LOIS,,"Place des Oiseaux",,50.438373,2.651375,,,0,
HER2LPIE,,"Longue Pierre",,50.448992,2.642424,,,0,
HER2MAIR,,"Hersin-Coupigny Mairie",,50.448821,2.649757,,,0,
HER2MREM,,"Marcel Rémi",,50.456526,2.667763,,,0,
HER2PDAN,,"Parc des Anglais",,50.441634,2.653446,,,0,
HER2PISC,,"Hersin Piscine",,50.448179,2.646181,,,0,
HER2SALE,,"Place Salengro",,50.440868,2.643600,,,0,
HER2TIRT,,"Tirtaine",,50.443440,2.644949,,,0,
HES1BH22,,"08 mai 1945",,50.502392,2.589414,,,0,
HES1RNAT,,"4 Septembre 1944",,50.502003,2.588641,,,0,
HES2BH22,,"08 mai 1945",,50.502489,2.589346,,,0,
HES2RNAT,,"4 Septembre 1944",,50.501587,2.587680,,,0,
HIN1CALV,,"Vertannoy",,50.565254,2.614211,,,0,
HIN1CDOR,,"Champs Doré",,50.559553,2.619383,,,0,
HIN1CIME,,"Hinges Cimetière",,50.561628,2.620641,,,0,
HIN1FUSI,,"Rue des Fusillés",,50.565187,2.629297,,,0,
HIN1HING,,"Rue d'Hingette",,50.564028,2.637783,,,0,
HIN1LBOU,,"Rue du Boulan",,50.566579,2.635022,,,0,
HIN1LPAC,,"Le Pacault",,50.591156,2.632744,,,0,
HIN1LPAN,,"La Pannerie",,50.572552,2.621832,,,0,
HIN1MAIR,,"Hinges Mairie",,50.566682,2.621059,,,0,
HIN1PLA2,,"Hinges Ecole Maternelle",,50.564700,2.624252,,,0,
HIN1PLAC,,"Rue Neuve",,50.564993,2.620408,,,0,
HIN1RDME,,"Chemin des Anglais",,50.587129,2.629453,,,0,
HIN1RDPA,,"Rue de Paradis",,50.592236,2.641993,,,0,
HIN1RDRI,,"Rue du Rietz",,50.580685,2.627330,,,0,
HIN1RFRO,,"Rue Froide",,50.570186,2.620748,,,0,
HIN1VALD,,"Val d'Anchin",,50.555071,2.617143,,,0,
HIN2CALV,,"Vertannoy",,50.565169,2.613888,,,0,
HIN2CDOR,,"Champs Doré",,50.559505,2.619532,,,0,
HIN2CIME,,"Hinges Cimetière",,50.561709,2.620832,,,0,
HIN2FUSI,,"Rue des Fusillés",,50.565265,2.629302,,,0,
HIN2HING,,"Rue d'Hingette",,50.563344,2.638455,,,0,
HIN2LBOU,,"Rue du Boulan",,50.566565,2.634812,,,0,
HIN2LPAC,,"Le Pacault",,50.591090,2.632796,,,0,
HIN2LPAN,,"La Pannerie",,50.572447,2.621892,,,0,
HIN2MAIR,,"Hinges Mairie",,50.566851,2.621001,,,0,
HIN2PLA2,,"Hinges Ecole Maternelle",,50.564779,2.624189,,,0,
HIN2PLAC,,"Rue Neuve",,50.564944,2.620439,,,0,
HIN2RDME,,"Chemin des Anglais",,50.586986,2.629466,,,0,
HIN2RDPA,,"Rue de Paradis",,50.592220,2.642193,,,0,
HIN2RDRI,,"Rue du Rietz",,50.580022,2.626918,,,0,
HIN2RFRO,,"Rue Froide",,50.569720,2.620604,,,0,
HIN2VALD,,"Val d'Anchin",,50.554717,2.617921,,,0,
HOH1BDHO,,"Bas d'Houchin",,50.484324,2.627462,,,0,
HOH1CALV,,"Egalité",,50.481114,2.622671,,,0,
HOH1CENT,,"Houchin Mairie",,50.482661,2.625146,,,0,
HOH2BDHO,,"Bas d'Houchin",,50.484540,2.627496,,,0,
HOH2CALV,,"Egalité",,50.481215,2.622579,,,0,
HOH2CENT,,"Houchin Mairie",,50.482589,2.624935,,,0,
HOU1AERO,,"Aéronautes",,50.463770,2.549776,,,0,
HOU1ARAG,,"Aragon",,50.461824,2.547328,,,0,
HOU1BDFR,,"Bois du Fresnoy",,50.449027,2.530108,,,0,
HOU1BRUN,,"Rue de Villejuif",,50.450448,2.524684,,,0,
HOU1CAMP,,"Campagne",,50.457493,2.525885,,,0,
HOU1COPR,,"Houdain Collège Prévert",,50.462025,2.545220,,,0,
HOU1DHAZ,,"Désiré Haze",,50.454526,2.527327,,,0,
HOU1FREN,,"Frênes",,50.455663,2.552682,,,0,
HOU1GARA,,"Rue de la Gare",,50.455220,2.529290,,,0,
HOU1GEND,,"Houdain Gendarmerie",,50.448432,2.543464,,,0,
HOU1LYAU,,"Lyautey",,50.466354,2.552758,,,0,
HOU1MAIR,,"Houdain Mairie",,50.452746,2.535218,,,0,
HOU1MARR,,"Marronniers",,50.459240,2.552535,,,0,
HOU1MITR,,"Mitry",,50.461782,2.556014,,,0,
HOU1PDLM,,"Place de la Marne",,50.456150,2.548847,,,0,
HOU1PDLS,,"Somme",,50.458096,2.544656,,,0,
HOU1POST,,"Houdain Poste",,50.451417,2.535656,,,0,
HOU1PPLA,,"Petite Place",,50.451492,2.539584,,,0,
HOU1RDBR,,"Route de Bruay",,50.465206,2.541818,,,0,
HOU1SJEA,,"Saint-Jean",,50.455395,2.539599,,,0,
HOU2AERO,,"Aéronautes",,50.463509,2.549544,,,0,
HOU2ARAG,,"Aragon",,50.461725,2.547341,,,0,
HOU2BDFR,,"Bois du Fresnoy",,50.449093,2.530155,,,0,
HOU2BRUN,,"Rue de Villejuif",,50.450460,2.524733,,,0,
HOU2CAMP,,"Campagne",,50.457461,2.525704,,,0,
HOU2COPR,,"Houdain Collège Prévert",,50.462280,2.545224,,,0,
HOU2DHAZ,,"Désiré Haze",,50.454515,2.527382,,,0,
HOU2FREN,,"Frênes",,50.455606,2.552790,,,0,
HOU2GARA,,"Rue de la Gare",,50.455123,2.529662,,,0,
HOU2GEND,,"Houdain Gendarmerie",,50.448426,2.543604,,,0,
HOU2LYAU,,"Lyautey",,50.467062,2.553521,,,0,
HOU2MAIR,,"Houdain Mairie",,50.452890,2.535064,,,0,
HOU2MARR,,"Marronniers",,50.459145,2.552587,,,0,
HOU2MITR,,"Mitry",,50.461497,2.555307,,,0,
HOU2PDLM,,"Place de la Marne",,50.456143,2.548632,,,0,
HOU2PDLS,,"Somme",,50.457907,2.545077,,,0,
HOU2POST,,"Houdain Poste",,50.451597,2.535660,,,0,
HOU2PPLA,,"Petite Place",,50.451617,2.539556,,,0,
HOU2RDBR,,"Route de Bruay",,50.464991,2.541620,,,0,
HOU2SJEA,,"Saint-Jean",,50.455324,2.539567,,,0,
HUL1CIME,,"Hulluch Cimetière",,50.486122,2.814766,,,0,
HUL1CLCH,,"Clos du Château",,50.484931,2.819627,,,0,
HUL1FO13,,"Fosse 13",,50.492452,2.809196,,,0,
HUL1LRAY,,"La Rayère",,50.488457,2.825479,,,0,
HUL1MAIR,,"Hulluch Mairie",,50.483934,2.817955,,,0,
HUL1MARA,,"Maraîchon",,50.479374,2.814323,,,0,
HUL1RDDU,,"Rue de Dunkerque",,50.484968,2.808946,,,0,
HUL1TOUR,,"Tournebride",,50.486657,2.809853,,,0,
HUL2CIME,,"Hulluch Cimetière",,50.486174,2.814799,,,0,
HUL2CLOS,,"Clos du Château",,50.484958,2.819445,,,0,
HUL2FOSS,,"Fosse 13",,50.492516,2.809329,,,0,
HUL2LRAY,,"La Rayère",,50.488290,2.824967,,,0,
HUL2MAIR,,"Hulluch Mairie",,50.483824,2.817975,,,0,
HUL2MARA,,"Maraîchon",,50.479372,2.814467,,,0,
HUL2RDDU,,"Rue de Dunkerque",,50.484920,2.808770,,,0,
HUL2TOUR,,"Tournebride",,50.486671,2.811049,,,0,
LAB1BARR,,"Barrière",,50.524065,2.560184,,,0,
LAB1BLUM,,"Blum",,50.518877,2.561132,,,0,
LAB1PLA2,,"Labeuvrière Mairie",,50.521693,2.563568,,,0,
LAB1PLAC,,"Labeuvrière Ecole",,50.521340,2.563591,,,0,
LAB1SALE,,"Labeuvrière Salengro",,50.519658,2.566641,,,0,
LAB1SPET,,"Scierie Peter",,50.515691,2.546850,,,0,
LAB2BARR,,"Barrière",,50.524058,2.560047,,,0,
LAB2BLUM,,"Blum",,50.518947,2.561110,,,0,
LAB2PLAC,,"Labeuvrière Ecole",,50.520938,2.562928,,,0,
LAB2SALE,,"Labeuvrière Salengro",,50.519484,2.567762,,,0,
LAB2SPET,,"Scierie Peter",,50.515941,2.547681,,,0,
LAC1CERA,,"Céramique",,50.427718,2.496048,,,0,
LAC1L6FO,,"Les 6 Fontaines",,50.426298,2.498498,,,0,
LAC1LBAU,,"Le Bajuel",,50.428630,2.489908,,,0,
LAC1LROC,,"La Rochelle",,50.426538,2.503790,,,0,
LAC1LROS,,"Les Rossignols",,50.430976,2.507024,,,0,
LAC1RDLG,,"La Comté Rue de la Gare",,50.437100,2.487660,,,0,
LAC2CERA,,"Céramique",,50.427875,2.495815,,,0,
LAC2L6FO,,"Les 6 Fontaines",,50.426276,2.498366,,,0,
LAC2LBAU,,"Le Bajuel",,50.428493,2.490099,,,0,
LAC2LROC,,"La Rochelle",,50.426615,2.503934,,,0,
LAC2LROS,,"Les Rossignols",,50.430890,2.506846,,,0,
LAC2RDLG,,"La Comté Rue de la Gare",,50.436943,2.488016,,,0,
LAP18MAI,,"Cité du 8 Mai",,50.521582,2.552308,,,0,
LAP1CALV,,"Rue Barbusse",,50.515306,2.535156,,,0,
LAP1CIME,,"Lapugnoy Cimetière",,50.520572,2.550732,,,0,
LAP1EGLI,,"Lapugnoy Mairie",,50.515926,2.540364,,,0,
LAP1LMOT,,"La Motte",,50.513994,2.542509,,,0,
LAP1MEVE,,"Mont Eventé",,50.510548,2.522739,,,0,
LAP1PNEU,,"Pont Neuf",,50.525765,2.558484,,,0,
LAP1RFLE,,"Rivière Fleurie",,50.518079,2.546030,,,0,
LAP1STAD,,"Lapugnoy Stade",,50.512506,2.527610,,,0,
LAP1VAMA,,"Victor Hugo - Gare SNCF",,50.506708,2.516089,,,0,
LAP28MAI,,"Cité du 8 Mai",,50.521543,2.552025,,,0,
LAP2CALV,,"Rue Barbusse",,50.515454,2.535688,,,0,
LAP2CIME,,"Lapugnoy Cimetière",,50.520625,2.550633,,,0,
LAP2EGLI,,"Lapugnoy Mairie",,50.516141,2.540787,,,0,
LAP2LMOT,,"La Motte",,50.514066,2.541820,,,0,
LAP2MEVE,,"Mont Eventé",,50.510986,2.523492,,,0,
LAP2PNEU,,"Pont Neuf",,50.525836,2.558786,,,0,
LAP2RFLE,,"Rivière Fleurie",,50.518154,2.545933,,,0,
LAP2STAD,,"Lapugnoy Stade",,50.512591,2.527529,,,0,
LAP2VAMA,,"Victor Hugo - Gare SNCF",,50.506755,2.515960,,,0,
LBA1GARE,,"La Bassée Gare SNCF",,50.528070,2.804479,,,0,
LBA1GDBO,,"La Bassée Gare SNCF",,50.528233,2.802844,,,0,
LBA1MAIR,,"La Bassée Hôtel de Ville",,50.531922,2.803849,,,0,
LBA1NDAM,,"Notre-Dame",,50.530904,2.802318,,,0,
LBA2NDAM,,"Notre-Dame",,50.531873,2.800890,,,0,
LBS1ACOV,,"Aire de Covoiturage",,50.482163,2.683167,,,0,
LBS1CHAP,,"Achille Larue",,50.500482,2.686255,,,0,
LBS1FERR,,"Ferry",,50.497366,2.677540,,,0,
LBS1MAIR,,"Labourse Mairie",,50.498820,2.680659,,,0,
LBS1PONT,,"Rue des Fontaines",,50.492546,2.678563,,,0,
LBS1ZINB,,"Z.I Noeux-Labourse",,50.484832,2.678018,,,0,
LBS2ACOV,,"Aire de Covoiturage",,50.482635,2.682482,,,0,
LBS2CHAP,,"Achille Larue",,50.500350,2.685646,,,0,
LBS2FERR,,"Ferry",,50.497897,2.677221,,,0,
LBS2MAIR,,"Labourse Mairie",,50.498906,2.680785,,,0,
LBS2PONT,,"Rue des Fontaines",,50.492358,2.678392,,,0,
LBS2ZINB,,"Z.I Noeux-Labourse",,50.485906,2.675037,,,0,
LCR1AGRO,,"Agronssart",,50.593113,2.687164,,,0,
LCR1C126,,"Rue des Chavattes n°1260",,50.564210,2.727179,,,0,
LCR1C496,,"Rue des Chavattes n°496",,50.569064,2.735531,,,0,
LCR1C746,,"Rue des Chavattes n°746",,50.567452,2.733345,,,0,
LCR1C922,,"Rue des Chavattes n°922",,50.566834,2.732101,,,0,
LCR1CALV,,"La Couture Calvaire",,50.583513,2.677946,,,0,
LCR1CHAP,,"Chapelle Saint-Pierre",,50.573206,2.734846,,,0,
LCR1CHER,,"Rue des Chavattes (Ferme Herman)",,50.562114,2.721439,,,0,
LCR1DOJO,,"Dojo",,50.580523,2.714791,,,0,
LCR1FDET,,"Feu d' Etrein",,50.590560,2.699171,,,0,
LCR1LEMB,,"L'Embranchement",,50.592634,2.686136,,,0,
LCR1LMAD,,"La Maladrerie",,50.575288,2.708777,,,0,
LCR1LOBI,,"Lobiau",,50.573528,2.733662,,,0,
LCR1NEVO,,"Neuve Voie",,50.576390,2.721099,,,0,
LCR1PLAC,,"La Couture Mairie",,50.581625,2.714238,,,0,
LCR1RBUC,,"Rue Buchart",,50.587720,2.682171,,,0,
LCR1RCRM,,"Rue de la Croix Marmusse n°36",,50.594270,2.686080,,,0,
LCR1RDCH,,"Chavattes",,50.560962,2.717764,,,0,
LCR1RDCT,,"Les Chouettes",,50.566766,2.706436,,,0,
LCR1RDLS,,"La Sauvagerie",,50.597710,2.689780,,,0,
LCR1RDMO,,"Rue du Moulin",,50.575610,2.738570,,,0,
LCR1RDPM,,"Rue du Pont Maudit",,50.585797,2.702725,,,0,
LCR1RDTO,,"Rue du Touret",,50.562660,2.707535,,,0,
LCR1RL54,,"Rue des Lobes n°54",,50.583533,2.677396,,,0,
LCR1RL99,,"Rue des Lobes n°996",,50.587324,2.665834,,,0,
LCR1RLOB,,"Rue des Lobiaux n°1108",,50.574118,2.726137,,,0,
LCR1RPIC,,"Angle rue Picavet Abri Bus",,50.592370,2.677493,,,0,
LCR1RPLE,,"Rue Pierre Leroy",,50.590438,2.683408,,,0,
LCR1RRAB,,"Rue du Rabat",,50.591840,2.692436,,,0,
LCR1RVER,,"Rue Verte Voie face au n°623",,50.587865,2.673721,,,0,
LCR1SAD1,,"La Couture Allobus",,50.581426,2.713934,,,0,
LCR2AGRO,,"Agronssart",,50.593025,2.687267,,,0,
LCR2CALV,,"La Couture Calvaire",,50.584105,2.678792,,,0,
LCR2DOJO,,"Dojo",,50.580605,2.714411,,,0,
LCR2ECOL,,"Ecole",,50.579388,2.713080,,,0,
LCR2FDET,,"Feu d' Etrein",,50.590473,2.698984,,,0,
LCR2LEMB,,"L'Embranchement",,50.592660,2.686348,,,0,
LCR2LMAD,,"La Maladrerie",,50.575216,2.708828,,,0,
LCR2LOBI,,"Lobiau",,50.573089,2.733487,,,0,
LCR2NEVO,,"Neuve Voie",,50.575801,2.721094,,,0,
LCR2PLAC,,"La Couture Mairie",,50.581773,2.714524,,,0,
LCR2RBUC,,"Rue Buchart",,50.587773,2.682354,,,0,
LCR2RCRM,,"Rue de la Croix Marmusse n°36",,50.594206,2.686018,,,0,
LCR2RDCH,,"Chavattes",,50.561121,2.717384,,,0,
LCR2RDCT,,"Les Chouettes",,50.567286,2.706426,,,0,
LCR2RDLS,,"La Sauvagerie",,50.598208,2.691080,,,0,
LCR2RDMO,,"Rue du Moulin",,50.575397,2.739245,,,0,
LCR2RDPM,,"Rue du Pont Maudit",,50.585507,2.702939,,,0,
LCR2RDTO,,"Rue du Touret",,50.562601,2.707649,,,0,
LCR2RL54,,"Rue des Lobes n°54",,50.583463,2.677218,,,0,
LCR2RL99,,"Rue des Lobes n°996",,50.587183,2.665720,,,0,
LCR2RPIC,,"Angle rue Picavet Abri Bus",,50.592326,2.677672,,,0,
LCR2RPLE,,"Rue Pierre Leroy",,50.590551,2.683543,,,0,
LCR2RRAB,,"Rue du Rabat",,50.591826,2.692282,,,0,
LCR2RVER,,"Rue Verte Voie face au n°623",,50.587967,2.673728,,,0,
LCR2SAD1,,"La Couture Allobus",,50.581827,2.714593,,,0,
LEF1CALV,,"Calvaire",,50.440063,3.056564,,,0,
LEF1CIME,,"Leforest Cimetière",,50.442698,3.062925,,,0,
LEF1CODU,,"Leforest Collège Duez",,50.436599,3.057365,,,0,
LEF1DISP,,"Salle des Fêtes",,50.434792,3.059067,,,0,
LEF1GARE,,"Leforest Gare SNCF",,50.427933,3.059294,,,0,
LEF1LCAR,,"Lazare Carnot",,50.432215,3.060680,,,0,
LEF1LPLA,,"Le Planty",,50.437619,3.070888,,,0,
LEF1OFFL,,"Offlarde",,50.442080,3.058448,,,0,
LEF1PMAI,,"Leforest Mairie",,50.437856,3.061113,,,0,
LEF1RDPO,,"Rue de la Poterie",,50.440050,3.068488,,,0,
LEF1RJJA,,"Rue Jean Jaurès",,50.439424,3.065849,,,0,
LEF2CALV,,"Calvaire",,50.440020,3.056353,,,0,
LEF2CIME,,"Leforest Cimetière",,50.442655,3.062823,,,0,
LEF2CODU,,"Leforest Collège Duez",,50.436730,3.057346,,,0,
LEF2DISP,,"Salle des Fêtes",,50.433468,3.058886,,,0,
LEF2LCAR,,"Lazare Carnot",,50.431918,3.060887,,,0,
LEF2OFFL,,"Offlarde",,50.442106,3.058575,,,0,
LEF2PMAI,,"Leforest Mairie",,50.438080,3.060956,,,0,
LEF2RDPO,,"Rue de la Poterie",,50.440090,3.068391,,,0,
LEF2RJJA,,"Rue Jean Jaurès",,50.439482,3.066017,,,0,
LEN14SEP,,"4 septembre",,50.432229,2.830991,,,0,
LEN1AFRA,,"Paul Sion",,50.437922,2.843826,,,0,
LEN1ALAI,,"Alain",,50.443667,2.830572,,,0,
LEN1BASL,,"Basly",,50.430133,2.825684,,,0,
LEN1BEHA,,"Béhal",,50.443857,2.823883,,,0,
LEN1BFE2,,"Belle Femme",,50.434894,2.790626,,,0,
LEN1BIBL,,"Lens Bibliothèque",,50.433354,2.821109,,,0,
LEN1BOLL,,"Bollaert",,50.428384,2.816300,,,0,
LEN1BOUR,,"Bourdonnais",,50.440616,2.816842,,,0,
LEN1BROS,,"Lens Cimetière Nord",,50.445814,2.810015,,,0,
LEN1CAN2,,"Cantin",,50.431819,2.833059,,,0,
LEN1CDI1,,"Lens Centre des Impôts",,50.436624,2.835799,,,0,
LEN1CDPR,,"Cité des Provinces",,50.441998,2.789854,,,0,
LEN1CEPA,,"P.A Artisanat",,50.440366,2.808022,,,0,
LEN1CHAR,,"Lens Delattre",,50.438691,2.826779,,,0,
LEN1CHL1,,"Lens Hôpital",,50.439081,2.820870,,,0,
LEN1CHL2,,"Schaffner",,50.441274,2.822015,,,0,
LEN1CHL3,,"Lens Centre Hospitalier",,50.438110,2.814117,,,0,
LEN1CIM3,,"Lens Cimetière Ouest",,50.432975,2.798892,,,0,
LEN1CIME,,"Henri Barbusse",,50.425110,2.842955,,,0,
LEN1CIOI,,"Cité des Oiseaux",,50.440141,2.839042,,,0,
LEN1COJJ,,"Lens Cité Scolaire",,50.439283,2.799276,,,0,
LEN1COJZ,,"Lens Collège Jean Zay",,50.442970,2.825208,,,0,
LEN1COMI,,"Lens Collège Michelet",,50.429853,2.827460,,,0,
LEN1COQA,,"Lens Lycée Condorcet - Quai A",,50.430847,2.839824,,,0,
LEN1COQB,,"Lens Lycée Condorcet - Quai B",,50.431135,2.839897,,,0,
LEN1COTY,,"Coty",,50.426648,2.809630,,,0,
LEN1CREM,,"Lens Crématorium",,50.458211,2.815695,,,0,
LEN1CSE2,,"Charcot",,50.437901,2.822415,,,0,
LEN1CSEC,,"Lens Caisse de Secours",,50.437068,2.821440,,,0,
LEN1ECBD,,"Lens Ecole Desrousseaux",,50.438610,2.834175,,,0,
LEN1ECLF,,"Lens Ecole La Fontaine",,50.444199,2.819626,,,0,
LEN1ECMA,,"Gymnase Hochman",,50.426767,2.805385,,,0,
LEN1ECPA,,"Place du Quercy",,50.440500,2.791955,,,0,
LEN1ECPB,,"Vivien Foé",,50.430559,2.812986,,,0,
LEN1EIF2,,"Grande Résidence",,50.447711,2.830030,,,0,
LEN1FACU,,"Lens Faculté",,50.434858,2.822009,,,0,
LEN1FOCA,,"Maison des Projets",,50.429832,2.811640,,,0,
LEN1FOCY,,"Cyclamens",,50.437371,2.807942,,,0,
LEN1FOJM,,"Rue Jean Moulin",,50.437137,2.828406,,,0,
LEN1FOS4,,"Fosse 4",,50.425487,2.819841,,,0,
LEN1FOVO,,"Saint-Edouard",,50.443533,2.813255,,,0,
LEN1GCON,,"Grand Condé",,50.441429,2.834675,,,0,
LEN1GEND,,"Lens Gendarmerie",,50.436066,2.816078,,,0,
LEN1GMOL,,"Mollet",,50.437171,2.842156,,,0,
LEN1GQUA,,"Gare Bus",,50.427380,2.827488,,,0,
LEN1GQUB,,"Gare Bus",,50.427338,2.826951,,,0,
LEN1GQUC,,"Gare Bus",,50.427483,2.826601,,,0,
LEN1GQUD,,"Gare Bus",,50.427572,2.826391,,,0,
LEN1GQUE,,"Gare Bus",,50.427687,2.826102,,,0,
LEN1GQUF,,"Gare Bus",,50.427785,2.825892,,,0,
LEN1GQUG,,"Gare Bus",,50.427848,2.825746,,,0,
LEN1GQUH,,"Gare Bus",,50.427500,2.826840,,,0,
LEN1GQUI,,"Gare Bus",,50.427546,2.826638,,,0,
LEN1GQUJ,,"Gare Bus",,50.427686,2.826359,,,0,
LEN1GQUK,,"Gare Bus",,50.427737,2.826167,,,0,
LEN1GQUL,,"Gare Bus",,50.427836,2.825939,,,0,
LEN1GQUM,,"Gare Bus",,50.427888,2.825841,,,0,
LEN1HDVL,,"Lens  Hôtel de Ville",,50.429292,2.831802,,,0,
LEN1IUT_,,"Lens I.U.T",,50.438016,2.810632,,,0,
LEN1JBLE,,"Eugène Thomas",,50.434056,2.827972,,,0,
LEN1KENN,,"Van Pelt",,50.430766,2.840410,,,0,
LEN1KLEB,,"Lens Collège Michelet",,50.429880,2.827473,,,0,
LEN1LAM2,,"Halette",,50.449932,2.818748,,,0,
LEN1LANO,,"Lanoy",,50.430110,2.833362,,,0,
LEN1LBLU,,"Blum",,50.435949,2.791997,,,0,
LEN1LECL,,"Leclerc",,50.429471,2.829201,,,0,
LEN1LFLE,,"Oeillets",,50.441352,2.802514,,,0,
LEN1LOEI,,"Primevères",,50.437973,2.804625,,,0,
LEN1LPAI,,"Leclerc",,50.429509,2.829207,,,0,
LEN1LYBE,,"Lens Lycée Béhal",,50.443747,2.824927,,,0,
LEN1LYC1,,"Lens Lycée Condorcet",,50.432789,2.837526,,,0,
LEN1LYO1,,"Lens Lycée Robespierre",,50.439531,2.796786,,,0,
LEN1LYO2,,"Picardie",,50.440351,2.796972,,,0,
LEN1MALL,,"Mallarmé",,50.422389,2.839926,,,0,
LEN1MONT,,"Montgré",,50.424240,2.836320,,,0,
LEN1MONU,,"Rue de l'Université",,50.438840,2.810920,,,0,
LEN1MOZA,,"Mozart",,50.428916,2.805373,,,0,
LEN1NDLO,,"Lorette",,50.425112,2.817884,,,0,
LEN1PCYT,,"Parc des Cytises",,50.461950,2.818782,,,0,
LEN1PDO2,,"Pont de Douai",,50.428366,2.836681,,,0,
LEN1PIS2,,"Lens Piscine",,50.443528,2.827488,,,0,
LEN1PJBA,,"Jeu de Balle",,50.444431,2.805891,,,0,
LEN1PLAP,,"Vaillant Couturier",,50.445377,2.833124,,,0,
LEN1PLUM,,"Plumecoq",,50.442772,2.803497,,,0,
LEN1PREG,,"Regnard",,50.435064,2.796310,,,0,
LEN1PREP,,"Lens Centre-Ville",,50.427615,2.831294,,,0,
LEN1PSA1,,"Briquet",,50.432635,2.835003,,,0,
LEN1RENA,,"P.A Les Renardières",,50.450019,2.826077,,,0,
LEN1RLON,,"Londres",,50.443446,2.834760,,,0,
LEN1RSEL,,"Résidence Sellier",,50.423668,2.811005,,,0,
LEN1SECU,,"Lens Sécurité Sociale",,50.431481,2.842679,,,0,
LEN1SHOU,,"Salle Houdart",,50.443648,2.810976,,,0,
LEN1SIQA,,"Collège Sainte-Ide - Quai A",,50.435171,2.830514,,,0,
LEN1SIQB,,"Collège Sainte-Ide - Quai B",,50.435314,2.830907,,,0,
LEN1SPQA,,"Lycée Saint-Paul - Quai A",,50.436245,2.823020,,,0,
LEN1SPQB,,"Lycée Saint-Paul - Quai B",,50.435867,2.823410,,,0,
LEN1SPRE,,"Lens Sous-Préfecture",,50.432020,2.822684,,,0,
